Fuel Type Code,Station Name,Street Address,Intersection Directions,City,State,ZIP,Plus4,Station Phone,Status Code,Expected Date,Groups With Access Code,Access Days Time,Cards Accepted,BD Blends,NG Fill Type Code,NG PSI,EV Level1 EVSE Num,EV Level2 EVSE Num,EV DC Fast Count,EV Other Info,EV Network,EV Network Web,Geocode Status,Latitude,Longitude,Date Last Confirmed,ID,Updated At,Owner Type Code,Federal Agency ID,Federal Agency Name,Open Date,Hydrogen Status Link,NG Vehicle Class,LPG Primary,E85 Blender Pump,EV Connector Types,Country,Intersection Directions (French),Access Days Time (French),BD Blends (French),Groups With Access Code (French),Hydrogen Is Retail,Access Code,Access Detail Code,Federal Agency Code,Facility Type,CNG Dispenser Num,CNG On-Site Renewable Source,CNG Total Compression Capacity,CNG Storage Capacity,LNG On-Site Renewable Source,E85 Other Ethanol Blends,EV Pricing,EV Pricing (French),LPG Nozzle Types,Hydrogen Pressures,Hydrogen Standards,CNG Fill Type Code,CNG PSI,CNG Vehicle Class,LNG Vehicle Class,EV On-Site Renewable Source,Restricted Access
ELEC,Hudson Valley Community College - TEC-SMART Building,345 Hermes Rd,,Malta,NY,12020,,518-629-7075,E,,Public,7am-10pm M-Sat; Drivers must bring their own J1772 cordset for Level 1 charging,,,,,1,,,,Non-Networked,,GPS,42.97167,-73.774182,2021-06-07,36532,2022-02-10 21:00:18 UTC,SG,,,2010-10-15,,,,,NEMA520,US,,,,Public,,public,,,COLLEGE_CAMPUS,,,,,,,Free,,,,,,,,,,
ELEC,AAA Car Care Plus,2131 Eggert Rd,,Amherst,NY,14226,,716-362-0562,E,,Public,24 hours daily,,,,,,1,,,Non-Networked,,200-9,42.979363,-78.821443,2020-09-03,42992,2022-05-16 15:43:38 UTC,P,,,2011-12-31,,,,,J1772,US,,,,Public,,public,,,PARKING_LOT,,,,,,,Free,,,,,,,,,,
ELEC,AAA Car Care Plus,8120 Main St,,Clarence,NY,14221,,716-932-3900  855-443-3873,E,,Public,24 hours daily,,,,,,1,,,Non-Networked,,GPS,42.965851,-78.69278,2020-06-09,42993,2022-05-16 15:43:27 UTC,P,,,2018-12-17,,,,,J1772,US,,,,Public,,public,,,SHOPPING_CENTER,,,,,,,Free,,,,,,,,,,
ELEC,Thruway Nissan,79 Route 17K,,Newburgh,NY,12550,,845-562-1000,E,,Public - Call ahead,Dealership business hours,,,,,,1,,,Non-Networked,,200-9,41.504105,-74.068916,2020-06-09,44174,2021-03-11 23:22:17 UTC,P,,,2011-11-30,,,,,J1772,US,,,,Public - Appeler à l'avance,,public,CALL,,CAR_DEALER,,,,,,,Free,,,,,,,,,,
ELEC,Country Club Imports,55 Oneida St,,Oneonta,NY,13820,,607-432-2800,E,,Public - Call ahead,Dealership business hours; see service desk for access,,,,,,2,2,,Non-Networked,,GPS,42.451285,-75.100333,2020-06-09,44176,2021-03-11 23:22:17 UTC,P,,,2011-11-30,,,,,CHADEMO J1772 J1772COMBO,US,,,,Public - Appeler à l'avance,,public,CALL,,CAR_DEALER,,,,,,,Free,,,,,,,,,,
ELEC,West-Herr Nissan,3580 Southwestern Blvd,,Orchard Park,NY,14127,,716-662-8008,E,,Public - Call ahead,Dealership business hours,,,,,,1,,,Non-Networked,,200-9,42.784867,-78.76558,2020-06-09,44178,2021-03-11 23:22:17 UTC,P,,,2011-11-30,,,,,J1772,US,,,,Public - Appeler à l'avance,,public,CALL,,CAR_DEALER,,,,,,,Free,,,,,,,,,,
ELEC,Nissan 112,730 Route 112,Route 112,Patchogue,NY,11772,,,E,,Public - Call ahead,Dealership business hours; contact 631-289-9100 for more information,,,,,,1,1,,Non-Networked,,GPS,40.792986,-73.00827,2020-06-09,44180,2021-03-11 23:22:17 UTC,P,,,2011-11-30,,,,,CHADEMO J1772,US,,,,Public - Appeler à l'avance,,public,CALL,,CAR_DEALER,,,,,,,Free,,,,,,,,,,
ELEC,Huttig Nissan,4670 State Route 9,,Plattsburgh,NY,12901,,518-561-1210,E,,Public - Call ahead,Dealership business hours,,,,,,1,,,Non-Networked,,200-9,44.667361,-73.444894,2020-06-09,44182,2021-03-11 23:22:17 UTC,P,,,2011-11-30,,,,,J1772,US,,,,Public - Appeler à l'avance,,public,CALL,,CAR_DEALER,,,,,,,Free,,,,,,,,,,
ELEC,Nissan City - Port Chester,225 Boston Post Rd,,Port Chester,NY,10573,,914-937-1777,E,,Public - Call ahead,Dealership business hours,,,,,,1,,,Non-Networked,,200-9,40.996358,-73.669405,2020-06-09,44184,2021-03-11 23:22:17 UTC,P,,,2011-11-30,,,,,J1772,US,,,,Public - Appeler à l'avance,,public,CALL,,CAR_DEALER,,,,,,,Free,,,,,,,,,,
ELEC,Riverhead Auto Mall,1800 Old Country Rd,,Riverhead,NY,11901,,631-369-0600,E,,Public - Call ahead,Dealership business hours,,,,,,2,2,,Non-Networked,,GPS,40.924758,-72.704752,2020-12-03,44186,2021-03-11 23:22:17 UTC,P,,,2011-11-30,,,,,CHADEMO J1772 J1772COMBO,US,,,,Public - Appeler à l'avance,,public,CALL,,CAR_DEALER,,,,,,,Free,,,,,,,,,,
ELEC,Dorschel Nissan,3817 W Henrietta Rd,,Rochester,NY,14623,,585-334-9440,E,,Public - Call ahead,Dealership business hours,,,,,,3,,,Non-Networked,,200-8,43.077581,-77.641934,2020-06-09,44188,2021-03-11 23:22:17 UTC,P,,,2011-11-30,,,,,J1772,US,,,,Public - Appeler à l'avance,,public,CALL,,CAR_DEALER,,,,,,,Free,,,,,,,,,,
ELEC,Nissan of Smithtown,535 Middle Country Rd,,St. James,NY,11780,,,E,,Public - Call ahead,Dealership business hours; contact 631-361-9696 for more information,,,,,,1,1,,Non-Networked,,200-9,40.859886,-73.162067,2022-03-07,44190,2022-03-07 19:49:53 UTC,P,,,2011-11-30,,,,,CHADEMO J1772,US,,,,Public - Appeler à l'avance,,public,CALL,,CAR_DEALER,,,,,,,,,,,,,,,,,
ELEC,Lia Nissan,2233 Central Ave,,Schenectady,NY,12304,,518-579-2000,E,,Public - Call ahead,Dealership business hours,,,,,,1,,,Non-Networked,,200-9,42.764517,-73.88522,2020-06-09,44192,2021-03-11 23:22:17 UTC,P,,,2011-11-30,,,,,J1772,US,,,,Public - Appeler à l'avance,,public,CALL,,CAR_DEALER,,,,,,,Free,,,,,,,,,,
ELEC,Gregoris Motors,555 W Merrick Rd,,Valley Stream,NY,11580,,516-825-8700,E,,Public - Call ahead,Dealership business hours,,,,,,1,,,Non-Networked,,200-9,40.670497,-73.717206,2020-06-09,44201,2021-03-11 23:22:17 UTC,P,,,2011-11-30,,,,,J1772,US,,,,Public - Appeler à l'avance,,public,CALL,,CAR_DEALER,,,,,,,Free,,,,,,,,,,
ELEC,Legend Nissan,268 Jericho Turnpike,,Syosset,NY,11791,,516-496-8181,E,,Public,Dealership business hours,,,,,,1,1,,Non-Networked,,200-9,40.809865,-73.507761,2022-03-07,44203,2022-03-07 19:49:53 UTC,P,,,2011-11-30,,,,,CHADEMO J1772 J1772COMBO,US,,,,Public,,public,,,CAR_DEALER,,,,,,,Free,,,,,,,,,,
ELEC,Serafini Nissan-Volvo,3101 Vestal Pkwy E,,Vestal,NY,13850,,607-729-3511,E,,Public - Call ahead,Dealership business hours,,,,,,1,,,Non-Networked,,200-9,42.095812,-76.003703,2020-06-09,44204,2021-03-11 23:22:17 UTC,P,,,2011-11-30,,,,,J1772,US,,,,Public - Appeler à l'avance,,public,CALL,,CAR_DEALER,,,,,,,Free,,,,,,,,,,
ELEC,Poughkeepsie Nissan,1445 Route 9,,Wappingers Falls,NY,12590,,845-297-4314,E,,Public - Call ahead,Dealership business hours,,,,,,1,,,Non-Networked,,200-9,41.587383,-73.908392,2020-06-09,44206,2021-03-11 23:22:17 UTC,P,,,2011-11-30,,,,,J1772,US,,,,Public - Appeler à l'avance,,public,CALL,,CAR_DEALER,,,,,,,Free,,,,,,,,,,
ELEC,Vision Nissan,785 Ridge Rd,,Webster,NY,14580,,585-787-2000,E,,Public - Call ahead,Dealership business hours,,,,,,1,,,Non-Networked,,200-9,43.204065,-77.478237,2020-06-09,44208,2021-03-11 23:22:17 UTC,P,,,2011-11-30,,,,,J1772,US,,,,Public - Appeler à l'avance,,public,CALL,,CAR_DEALER,,,,,,,Free,,,,,,,,,,
ELEC,Nissan of Westbury,939 Old Country Rd,,Westbury,NY,11590,,516-338-5600,E,,Public - Call ahead,Dealership business hours,,,,,,1,1,,Non-Networked,,200-8,40.753954,-73.561974,2020-06-09,44212,2021-03-11 23:22:17 UTC,P,,,2011-11-30,,,,,CHADEMO J1772,US,,,,Public - Appeler à l'avance,,public,CALL,,CAR_DEALER,,,,,,,Free,,,,,,,,,,
ELEC,West Herr Nissan - Williamsville,8137 Main St,,Williamsville,NY,14221,,877-813-5387,E,,Public - Call ahead,Dealership business hours,,,,,,1,,,Non-Networked,,GPS,42.96275,-78.691132,2020-06-09,44216,2021-03-11 23:22:17 UTC,P,,,2011-11-30,,,,,J1772,US,,,,Public - Appeler à l'avance,,public,CALL,,CAR_DEALER,,,,,,,Free,,,,,,,,,,
ELEC,Nissan of Yorktown Heights,3495 Old Crompond Rd,,Yorktown Heights,NY,10598,,914-737-3500,E,,Public - Call ahead,Dealership business hours,,,,,,2,1,,Non-Networked,,200-8,41.289317,-73.835547,2022-02-10,44218,2022-02-10 19:42:29 UTC,P,,,2011-11-30,,,,,CHADEMO J1772 J1772COMBO,US,,,,Public - Appeler à l'avance,,public,CALL,,CAR_DEALER,,,,,,,Free,,,,,,,,,,
ELEC,Destination Nissan,770 Central Ave,,Albany,NY,12206,,518-438-8461,E,,Public - Call ahead,Dealership business hours,,,,,,1,,,Non-Networked,,200-9,42.676971,-73.787334,2020-06-09,44317,2021-03-11 23:22:17 UTC,P,,,2011-11-30,,,,,J1772,US,,,,Public - Appeler à l'avance,,public,CALL,,CAR_DEALER,,,,,,,Free,,,,,,,,,,
ELEC,Mike Barney Nissan,3676 Sheridan Dr,,Amherst,NY,14226,,716-833-9888,E,,Public - Call ahead,Dealership business hours,,,,,,2,,,Non-Networked,,200-9,42.979725,-78.797346,2020-06-09,44319,2021-03-11 23:22:17 UTC,P,,,2011-11-30,,,,,J1772,US,,,,Public - Appeler à l'avance,,public,CALL,,CAR_DEALER,,,,,,,Free,,,,,,,,,,
ELEC,Lebrun Nissan,396 Grant Ave,,Auburn,NY,13021,,315-253-7700,E,,Public - Call ahead,Dealership business hours,,,,,,1,,,Non-Networked,,200-9,42.966894,-76.535879,2020-06-09,44321,2021-03-11 23:22:17 UTC,P,,,2011-11-30,,,,,J1772,US,,,,Public - Appeler à l'avance,,public,CALL,,CAR_DEALER,,,,,,,Free,,,,,,,,,,
ELEC,Star Nissan,20602 Northern Blvd,,Bayside,NY,11361,,718-423-0500,E,,Public - Call ahead,Dealership business hours,,,,,,1,,,Non-Networked,,200-8,40.758245,-73.776954,2020-06-09,44323,2021-03-11 23:22:17 UTC,P,,,2011-11-30,,,,,J1772,US,,,,Public - Appeler à l'avance,,public,CALL,,CAR_DEALER,,,,,,,Free,,,,,,,,,,
ELEC,Rockland Nissan,608 Route 303,,Blauvelt,NY,10913,,845-358-6700,E,,Public - Call ahead,Dealership business hours,,,,,,1,,,Non-Networked,,200-9,41.071072,-73.950866,2020-06-09,44325,2021-03-11 23:22:17 UTC,P,,,2011-11-30,,,,,J1772,US,,,,Public - Appeler à l'avance,,public,CALL,,CAR_DEALER,,,,,,,Free,,,,,,,,,,
ELEC,Bay Ridge Nissan,6501 5th Ave,,Brooklyn,NY,11220,,718-238-8000,E,,Public - Call ahead,Dealership business hours,,,,,,1,,,Non-Networked,,200-9,40.636324,-74.019228,2020-06-09,44327,2021-03-11 23:22:17 UTC,P,,,2011-11-30,,,,,J1772,US,,,,Public - Appeler à l'avance,,public,CALL,,CAR_DEALER,,,,,,,Free,,,,,,,,,,
ELEC,Kings Nissan,2758 Coney Island Ave,,Brooklyn,NY,11235,,718-376-0538,E,,Public - Call ahead,Dealership business hours; Nissan vehicle use only,,,,,,1,,,Non-Networked,,200-9,40.589167,-73.960707,2020-06-09,44329,2022-04-28 20:01:31 UTC,P,,,2011-11-30,,,,,J1772,US,,,,Public - Appeler à l'avance,,public,CALL,,CAR_DEALER,,,,,,,Free,,,,,,,,,,
ELEC,Burdick Nissan,5885 E Circle Dr,,Cicero,NY,13039,,315-458-8915,E,,Public - Call ahead,Dealership business hours,,,,,,1,,,Non-Networked,,200-9,43.147147,-76.114274,2020-06-09,44331,2021-03-11 23:22:17 UTC,P,,,2011-11-30,,,,,J1772,US,,,,Public - Appeler à l'avance,,public,CALL,,CAR_DEALER,,,,,,,Free,,,,,,,,,,
ELEC,Hoselton Nissan,66 Marsh Rd,,East Rochester,NY,14445,,585-385-3560,E,,Public - Call ahead,Dealership business hours,,,,,,1,,,Non-Networked,,200-9,43.100001,-77.481422,2020-06-09,44333,2021-03-11 23:22:17 UTC,P,,,2011-11-30,,,,,J1772,US,,,,Public - Appeler à l'avance,,public,CALL,,CAR_DEALER,,,,,,,Free,,,,,,,,,,
ELEC,Rockaway Nissan,600 Burnside Ave,,Inwood,NY,11096,,516-239-0100,E,,Public - Call ahead,Dealership business hours,,,,,,1,,,Non-Networked,,200-9,40.622268,-73.742699,2020-06-09,44336,2021-03-11 23:22:17 UTC,P,,,2011-11-30,,,,,J1772,US,,,,Public - Appeler à l'avance,,public,CALL,,CAR_DEALER,,,,,,,Free,,,,,,,,,,
ELEC,Maguire Nissan,504 S Meadow St,,Ithaca,NY,14850,,607-272-8000,E,,Public - Call ahead,Dealership business hours,,,,,,1,,,Non-Networked,,200-9,42.435042,-76.5088,2020-06-09,44338,2021-03-11 23:22:17 UTC,P,,,2011-11-30,,,,,J1772,US,,,,Public - Appeler à l'avance,,public,CALL,,CAR_DEALER,,,,,,,Free,,,,,,,,,,
ELEC,Nemet Motors,153-12 Hillside Ave,,Jamaica,NY,11432,,718-523-5858,E,,Public - Call ahead,Dealership business hours,,,,,,1,,,Non-Networked,,200-9,40.707242,-73.803844,2020-06-09,44342,2021-03-11 23:22:17 UTC,P,,,2011-11-30,,,,,J1772,US,,,,Public - Appeler à l'avance,,public,CALL,,CAR_DEALER,,,,,,,Free,,,,,,,,,,
ELEC,Treiber Nissan,320 N Comrie Ave,,Johnstown,NY,12095,,518-736-1300,E,,Public - Call ahead,Dealership business hours,,,,,,1,,,Non-Networked,,200-9,43.025044,-74.358103,2020-06-09,44344,2021-03-11 23:22:17 UTC,P,,,2011-11-30,,,,,J1772,US,,,,Public - Appeler à l'avance,,public,CALL,,CAR_DEALER,,,,,,,Free,,,,,,,,,,
ELEC,Nissan - Garden City,316 N Franklin St,,Hempstead,NY,11550,,,E,,Public - Call ahead,Dealership business hours; contact 516-483-4400 for more information,,,,,,1,1,,Non-Networked,,GPS,40.71693,-73.630152,2022-02-10,44346,2022-02-10 19:42:29 UTC,P,,,2011-11-30,,,,,CHADEMO J1772,US,,,,Public - Appeler à l'avance,,public,CALL,,CAR_DEALER,,,,,,,Free,,,,,,,,,,
ELEC,Simmons Rockwell Nissan,224 Colonial Dr,,Horseheads,NY,14845,,,E,,Public - Call ahead,Dealership business hours; contact 607-398-6666 for more information,,,,,,1,1,,Non-Networked,,GPS,42.16246,-76.867435,2022-02-10,44348,2022-02-10 19:42:29 UTC,P,,,2011-11-30,,,,,CHADEMO J1772 J1772COMBO,US,,,,Public - Appeler à l'avance,,public,CALL,,CAR_DEALER,,,,,,,Free,,,,,,,,,,
ELEC,Nissan - Huntington,850 E Jericho Turnpike,,Huntington Station,NY,11746,,,E,,Public - Call ahead,Dealership business hours; contact 631-439-7000 for more information,,,,,,1,1,,Non-Networked,,GPS,40.834455,-73.379693,2020-06-09,44350,2021-03-11 23:22:17 UTC,P,,,2011-11-30,,,,,CHADEMO J1772,US,,,,Public - Appeler à l'avance,,public,CALL,,CAR_DEALER,,,,,,,Free,,,,,,,,,,
ELEC,Kingston Nissan,140 Route 28,,Kingston,NY,12401,,845-338-3100,E,,Public - Call ahead,Dealership business hours,,,,,,1,1,,Non-Networked,,GPS,41.948965,-74.032033,2022-03-07,44352,2022-03-07 19:49:53 UTC,P,,,2011-11-30,,,,,CHADEMO J1772,US,,,,Public - Appeler à l'avance,,public,CALL,,CAR_DEALER,,,,,,,Free,,,,,,,,,,
ELEC,West Herr Nissan,6069 S Transit Rd,,Lockport,NY,14094,,716-625-8889,E,,Public - Call ahead,Dealership business hours,,,,,,1,,,Non-Networked,,200-9,43.128557,-78.696197,2020-06-09,44354,2021-03-11 23:22:17 UTC,P,,,2011-11-30,,,,,J1772,US,,,,Public - Appeler à l'avance,,public,CALL,,CAR_DEALER,,,,,,,Free,,,,,,,,,,
ELEC,Nissan Kia - Middletown,4961 Route 17M,,New Hampton,NY,10958,,845-374-6555,E,,Public - Call ahead,Dealership business hours,,,,,,1,,,Non-Networked,,200-9,41.40859,-74.413372,2020-06-09,44358,2021-03-11 23:22:17 UTC,P,,,2011-11-30,,,,,J1772,US,,,,Public - Appeler à l'avance,,public,CALL,,CAR_DEALER,,,,,,,Free,,,,,,,,,,
ELEC,Nissan of New Rochelle,2533 Palmer Ave,,New Rochelle,NY,10801,,914-576-7600,E,,Public - Call ahead,Dealership business hours,,,,,,1,1,,Non-Networked,,200-8,40.919104,-73.776645,2022-03-07,44360,2022-03-07 19:49:53 UTC,P,,,2011-11-30,,,,,CHADEMO J1772 J1772COMBO,US,,,,Public - Appeler à l'avance,,public,CALL,,CAR_DEALER,,,,,,,Free,,,,,,,,,,
ELEC,Baron Nissan,235 Glen Cove Rd,,Greenvale,NY,11548,,516-621-2300,E,,Public - Call ahead,Dealership business hours,,,,,,1,,,Non-Networked,,GPS,40.816267,-73.625869,2020-06-09,47721,2021-03-11 23:22:17 UTC,P,,,2012-01-31,,,,,J1772,US,,,,Public - Appeler à l'avance,,public,CALL,,CAR_DEALER,,,,,,,Free,,,,,,,,,,
ELEC,Vision Nissan Greece,4000 W Ridge Rd,,Rochester,NY,14626,,585-227-3800,E,,Public - Call ahead,Dealership business hours,,,,,,3,,,Non-Networked,,200-9,43.216099,-77.73619,2020-06-09,49676,2021-03-11 23:22:17 UTC,P,,,2012-10-25,,,,,J1772,US,,,,Public - Appeler à l'avance,,public,CALL,,CAR_DEALER,,,,,,,Free,,,,,,,,,,
ELEC,Central Avenue Nissan,1919 Central Park Ave,,Yonkers,NY,10710,,,E,,Public - Call ahead,Dealership business hours; Nissan use only; contact 914-961-3900 for more information,,,,,,1,1,,Non-Networked,,GPS,40.964447,-73.840117,2020-06-09,49678,2022-04-28 20:01:31 UTC,P,,,2016-04-05,,,,,CHADEMO J1772,US,,,,Public - Appeler à l'avance,,public,CALL,,CAR_DEALER,,,,,,,Free,,,,,,,,,,
ELEC,Shults Nissan,311 Fluvanna Ave,,Jamestown,NY,14701,,716-484-2780,E,,Public - Call ahead,Dealership business hours,,,,,,1,,,Non-Networked,,200-9,42.115661,-79.253776,2020-06-09,49932,2021-03-11 23:22:17 UTC,P,,,2012-10-25,,,,,J1772,US,,,,Public - Appeler à l'avance,,public,CALL,,CAR_DEALER,,,,,,,Free,,,,,,,,,,
ELEC,Nissan of Queens,9325 Rockaway Blvd,,Ozone Park,NY,11417,,718-835-8300,E,,Public - Call ahead,Dealership business hours,,,,,,1,,,Non-Networked,,200-9,40.68117,-73.845621,2020-06-09,49938,2021-03-11 23:22:17 UTC,P,,,2012-10-25,,,,,J1772,US,,,,Public - Appeler à l'avance,,public,CALL,,CAR_DEALER,,,,,,,Free,,,,,,,,,,
ELEC,Town of Penfield - Library,1985 Baird Rd,,Penfield,NY,14526,,585-340-8720,E,,Public,6am-9pm daily,,,,,,1,,,Non-Networked,,200-9,43.137476,-77.465214,2021-06-07,49941,2022-02-10 19:42:29 UTC,LG,,,2012-04-01,,,,,J1772,US,,,,Public,,public,,,LIBRARY,,,,,,,Free,,,,,,,,,,
ELEC,ShopRite Plaza,2333 Nott St E,,Niskayuna,NY,12309,,518-243-4565,E,,Public,24 hours daily,,,,,,2,,,Non-Networked,,200-9,42.816614,-73.889657,2021-05-06,50854,2022-02-10 19:42:29 UTC,P,,,2021-04-20,,,,,J1772,US,,,,Public,,public,,,GROCERY,,,,,,,Free,,,,,,,,,,
ELEC,TRICITYRENTALS WOODLAKE 2,61 Woodlake Rd N,,Albany,NY,12203,,888-758-4389,E,,Public,24 hours daily,,,,,,2,,,ChargePoint Network,http://www.chargepoint.com/,GPS,42.677277,-73.84716,2022-06-01,51095,2022-06-01 01:56:17 UTC,,,,2013-02-15,,,,,J1772,US,,,,Public,,public,,,,,,,,,,,,,,,,,,,,
ELEC,Fairport Village Landing,100 Fairport Village Landing,Adjacent to parking garage ramp near Perrin St,Fairport,NY,14450,,585-223-9500,E,,Public,24 hours daily,,,,,,6,,,EV Connect,http://evconnect.com/,GPS,43.100514,-77.443475,2021-06-07,51537,2021-12-06 18:36:15 UTC,LG,,,2019-02-27,,,,,J1772,US,,,,Public,,public,,,SHOPPING_CENTER,,,,,,,Free,,,,,,,,,,
ELEC,Lucas Ford,3245 Hortons Ln,,Southold,NY,11971,,,E,,Public,Dealership business hours; Dealership permission required,,,,,,2,,,Non-Networked,,200-9,41.069942,-72.43726,2021-06-07,52063,2022-05-17 03:27:27 UTC,P,,,2013-02-01,,,,,J1772,US,,,,Public,,public,,,CAR_DEALER,,,,,,,,,,,,,,,,,
ELEC,Ruge's Chevrolet,3692 Route 44,,Millbrook,NY,12545,,845-444-3039,E,,Public - Call ahead,Dealership business hours; for customer use only,,,,,,1,,,Non-Networked,,200-9,41.791563,-73.659717,2021-06-07,53442,2022-04-28 20:01:31 UTC,P,,,2012-10-01,,,,,J1772,US,,,,Public - Appeler à l'avance,,public,CALL,,CAR_DEALER,,,,,,,Free,,,,,,,,,,
ELEC,Henderson Ford,810 E Ridge Rd,Located in front of and on the west side of the building,Webster,NY,14580,,585-787-1700,E,,Public - Call ahead,Dealership business hours,,,,,,2,,,Non-Networked,,200-9,43.205714,-77.476722,2021-06-07,53975,2022-02-10 19:42:29 UTC,P,,,2013-09-01,,,,,J1772,US,,,,Public - Appeler à l'avance,,public,CALL,,CAR_DEALER,,,,,,,Free,,,,,,,,,,
ELEC,Steet-Ponte Ford Lincoln Mazda,5074 Commercial Dr,,Yorkville,NY,13495,,315-736-3381,E,,Public - Call ahead,Dealership business hours,,,,,,1,,,Non-Networked,,200-9,43.110055,-75.293478,2021-06-07,53976,2022-02-10 19:42:29 UTC,P,,,2013-11-01,,,,,J1772,US,,,,Public - Appeler à l'avance,,public,CALL,,CAR_DEALER,,,,,,,Free,,,,,,,,,,
ELEC,ADELPHI UNIV STATION 01,1 South Ave,,Garden City,NY,11530,,888-758-4389,E,,Public,24 hours daily,,,,,,2,,,ChargePoint Network,http://www.chargepoint.com/,GPS,40.719618,-73.649987,2022-06-01,60739,2022-06-01 02:07:20 UTC,,,,2014-03-14,,,,,J1772,US,,,,Public,,public,,,,,,,,,,,,,,,,,,,,
ELEC,ROCHESTER NY WASH SQ GARAGE2,111 Woodbury Blvd,,Rochester,NY,14607,,888-758-4389,E,,Public,24 hours daily,,,,,,2,,,ChargePoint Network,http://www.chargepoint.com/,GPS,43.152697,-77.603915,2022-06-01,61063,2022-06-01 01:51:15 UTC,,,,2014-04-03,,,,,J1772,US,,,,Public,,public,,,,,,,,,,,,,,,,,,,,
ELEC,ROCHESTER NY COURT ST 2,194 Court St,,Rochester,NY,14604,,888-758-4389,E,,Public,24 hours daily,,,,,,2,,,ChargePoint Network,http://www.chargepoint.com/,GPS,43.15395,-77.607471,2022-06-01,61065,2022-06-01 01:58:40 UTC,,,,2014-04-03,,,,,J1772,US,,,,Public,,public,,,,,,,,,,,,,,,,,,,,
ELEC,ROCHESTER NY PORT OF ROCH 1,1000 N River St,,Rochester,NY,14612,,888-758-4389,E,,Public,24 hours daily,,,,,,2,,,ChargePoint Network,http://www.chargepoint.com/,GPS,43.256302,-77.606672,2022-06-01,61213,2022-06-01 01:58:32 UTC,,,,2014-04-12,,,,,J1772,US,,,,Public,,public,,,,,,,,,,,,,,,,,,,,
ELEC,Broccolo Tree and Lawncare Garden Center,2755 Penfield Rd,,Fairport,NY,14450,,585-424-4476,E,,Public,8am-5pm daily,A Cash D M V,,,,,1,,,Non-Networked,,200-9,43.129935,-77.386788,2022-03-07,61760,2022-03-07 19:49:53 UTC,P,,,2013-09-01,,,,,J1772,US,,,,Public,,public,,,SHOPPING_CENTER,,,,,,,Free,,,,,,,,,,
ELEC,ROCHESTER NY PUBLC MARKET,39 Trinidad St,,Rochester,NY,14605,,888-758-4389,E,,Public,24 hours daily,,,,,,2,,,ChargePoint Network,http://www.chargepoint.com/,GPS,43.16603,-77.591324,2022-06-01,62307,2022-06-01 01:58:22 UTC,,,,2014-06-28,,,,,J1772,US,,,,Public,,public,,,,,,,,,,,,,,,,,,,,
ELEC,Village of Spencerport - Town Hall,27 West Ave,Located behind the Village office at South Union Street (Rt. 259),Spencerport,NY,14559,,585-352-4771,E,,Public,24 hours daily,,,,,,2,,,Non-Networked,,GPS,43.191311,-77.801933,2022-03-07,63140,2022-03-07 19:49:53 UTC,LG,,,2014-07-20,,,,,J1772,US,,,,Public,,public,,,MUNI_GOV,,,,,,,Free,,,,,,,,,,
ELEC,Niagara Falls International Airport,2035 Niagara Falls Blvd,Located in parking lot 1 in front of the terminal,Niagara Falls,NY,14304,,716-855-7300,E,,Public,24 hours daily,,,,,,2,,,Non-Networked,,200-9,43.101378,-78.941072,2021-05-06,63478,2022-02-10 19:42:29 UTC,P,,,2014-09-19,,,,,J1772,US,,,,Public,,public,,,AIRPORT,,,,,,,Free,,,,,,,,,,
ELEC,Buffalo Niagara International Airport,4200 Genesee St,"Located on Level 1, section F-2 in the Daily/Hourly Parking Garage",Buffalo,NY,14225,,716-630-6191,E,,Public,24 hours daily,,,,,,3,,,Non-Networked,,GPS,42.933441,-78.731633,2021-05-06,63479,2022-02-10 19:42:29 UTC,P,,,2014-12-31,,,,,J1772,US,,,,Public,,public,,,AIRPORT,,,,,,,Free,,,,,,,,,,
ELEC,Towne Ford Lincoln,3535 Southwestern Blvd,,Orchard Park,NY,14075,,716-662-6500,E,,Public - Call ahead,Dealership business hours,,,,,,1,,,Non-Networked,,GPS,42.786617,-78.761212,2021-06-07,63643,2022-02-10 19:42:29 UTC,P,,,2014-01-01,,,,,J1772,US,,,,Public - Appeler à l'avance,,public,CALL,,CAR_DEALER,,,,,,,Free,,,,,,,,,,
ELEC,Finger Lakes Waterfall Resort Motel & Cabins,3835 State Route 414,Located next to Hector Falls Public Parking Area in restricted parking area marked for resort guests only.,Burdett,NY,14818,,607-546-7171,E,,Public - Call ahead,Primarily for guest use; call to make appointment,Cash D M V,,,,,1,,,Non-Networked,,GPS,42.418993,-76.867035,2021-06-07,63982,2022-04-28 20:01:31 UTC,P,,,2013-09-01,,,,,J1772,US,,,,Public - Appeler à l'avance,,public,CALL,,HOTEL,,,,,,,,,,,,,,,,,
ELEC,Rochester Institute of Technology - Lot T,1 Lomb Memorial Dr,Located across from the GIS building,Rochester,NY,14623,,585-475-2074,E,,Public,24 hours daily; parking pass required,,,,,,6,,,Non-Networked,,200-9,43.08779,-77.674413,2021-05-06,63988,2022-04-28 20:01:31 UTC,P,,,2013-10-01,,,,,J1772,US,,,,Public,,public,,,COLLEGE_CAMPUS,,,,,,,Free,,,,,,,,,,
ELEC,Albany International Airport,737 Albany Shaker Rd,Located in the long-term parking lot and the garage on level P2 near the pedestrian bridge,Albany,NY,12205,,518-242-2299  866-816-7584,E,,Public,24 hours daily; pay parking lot,,,,,,16,,,EV Connect,http://evconnect.com/,200-8,42.739746,-73.808186,2021-06-07,64131,2021-12-06 18:36:15 UTC,P,,,2014-06-10,,,,,J1772,US,,,,Public,,public,,,AIRPORT,,,,,,,Free,,,,,,,,,SOLAR,
ELEC,Dana Ford Lincoln,266 W Service Rd,,Staten Island,NY,10314,,718-983-8700,E,,Public - Call ahead,Dealership business hours; for customer use only,,,,,,1,,,Non-Networked,,GPS,40.587162,-74.194747,2021-06-07,64140,2022-04-28 20:01:31 UTC,P,,,2014-11-01,,,,,J1772,US,,,,Public - Appeler à l'avance,,public,CALL,,CAR_DEALER,,,,,,,Free,,,,,,,,,,
ELEC,Ramp Ford,4869 Nesconset Hwy,,Port Jefferson Station,NY,11776,,631-473-1550,E,,Public - Call ahead,Dealership business hours,,,,,,1,,,Non-Networked,,200-9,40.91966,-73.051332,2021-06-07,64141,2022-02-10 19:42:29 UTC,P,,,2014-05-01,,,,,J1772,US,,,,Public - Appeler à l'avance,,public,CALL,,CAR_DEALER,,,,,,,Free,,,,,,,,,,
ELEC,Cliff's Elbow Too,1085 Franklinville Rd,Located at Main Rd and Aldrich Ln,Laurel,NY,11948,,631-298-3262,E,,Public,24 hours daily,,,,,,1,,,Non-Networked,,200-8,40.968038,-72.562787,2021-06-07,64705,2022-02-10 19:42:29 UTC,P,,,2014-08-01,,,,,J1772,US,,,,Public,,public,,,RESTAURANT,,,,,,,Free,,,,,,,,,,
ELEC,Cliff's Elbow Room,1549 Main Rd,South Jamesport Ave,Jamesport,NY,11947,,631-722-3292,E,,Public,24 hours daily,,,,,,1,,,Non-Networked,,200-9,40.948819,-72.582795,2021-06-07,64706,2022-02-10 19:42:29 UTC,P,,,2012-05-01,,,,,J1772,US,,,,Public,,public,,,RESTAURANT,,,,,,,Free,,,,,,,,,,
ELEC,Town of Cortlandt,1 Heady St,"Right off Oregon Rd, north of Bear Mountain State Parkway",Cortlandt,NY,10567,,914-734-1002  866-816-7584,E,,Public,24 hours daily,,,,,,2,,,EV Connect,http://evconnect.com/,200-9,41.310139,-73.905002,2021-06-07,65270,2021-12-06 18:36:15 UTC,SG,,,2014-11-01,,,,,J1772,US,,,,Public,,public,,,MUNI_GOV,,,,,,,,,,,,,,,,,
ELEC,Tarrytown Metro - North Train Station,4173 Green St,East side of the tracks near Marina. Parking spaces are against the fence by the tracks,Tarrytown,NY,10591,,914-631-7873  866-816-7584,E,,Public,24 hours daily; pay lot,,,,,,3,,,EV Connect,http://evconnect.com/,GPS,41.076261187618826,-73.86568628783567,2020-04-08,65271,2021-03-11 23:22:17 UTC,SG,,,2014-11-01,,,,,J1772,US,,,,Public,,public,,,PAY_LOT,,,,,,,,,,,,,,,,,
ELEC,Chappaqua Metro - North Train Station,108 Allen Pl,Exit 32 off Saw Mill River Parkway,Chappaqua,NY,10514,,914-238-4772  866-816-7584,E,,Public,24 hours daily,,,,,,3,,,EV Connect,http://evconnect.com/,200-8,41.159228,-73.773508,2020-04-08,65273,2021-03-11 23:22:17 UTC,SG,,,2014-07-02,,,,,J1772,US,,,,Public,,public,,,PARKING_LOT,,,,,,,,,,,,,,,,,
ELEC,Hamilton Parking Garage,365 Hamilton Ave,Near entrance from EJ Conroy Dr,White Plains,NY,10601,,914-422-1310,E,,Public,24 hours daily; pay lot,,,,,,3,,,Non-Networked,,200-9,41.034121,-73.766241,2021-06-07,65274,2022-02-10 19:42:29 UTC,SG,,,2014-07-23,,,,,J1772,US,,,,Public,,public,,,PAY_GARAGE,,,,,,,$1.50 per hour,,,,,,,,,,
ELEC,Longview Parking Garage,11 Longview Ave,"South of E Post Rd. Located at northeast corner of garage, ground level",White Plains,NY,10601,,914-422-1391  866-816-7584,E,,Public,24 hours daily; pay lot,,,,,,2,,,Non-Networked,,200-9,41.026867,-73.767674,2021-06-07,65275,2022-02-10 19:42:29 UTC,SG,,,2014-07-23,,,,,J1772,US,,,,Public,,public,,,PAY_GARAGE,,,,,,,$1.50 per hour,,,,,,,,,,
ELEC,Lyons Place Municipal Parking Garage,4 Lyons Pl,"North of Maple Ave. Located on 1st level, just right of entrance",White Plains,NY,10601,,914-422-1392,E,,Public,24 hours daily; pay lot,,,,,,2,,,EV Connect,http://evconnect.com/,200-8,41.02894,-73.763727,2020-03-03,65276,2021-05-20 22:20:41 UTC,SG,,,2014-11-01,,,,,J1772,US,,,,Public,,public,,,PAY_GARAGE,,,,,,,$1.50 per hour,,,,,,,,,,
ELEC,Skaneateles Village Hall,26 Fennell St,"At Village Hall building, next to the Post Office and Tops Market",Skaneateles,NY,13152,,315-685-3440  866-816-7584,E,,Public,24 hours daily,,,,,,3,,,EV Connect,http://evconnect.com/,200-9,42.948234,-76.431694,2020-05-06,65277,2021-03-11 23:22:17 UTC,SG,,,2014-07-05,,,,,J1772,US,,,,Public,,public,,,MUNI_GOV,,,,,,,,,,,,,,,,,
ELEC,Lexington-Grove East Garage,100 Main St,Turn right from Main St. Entrance. EVSE facing Dr. Martin Luther King Jr Blvd,White Plains,NY,10601,,914-422-1392,E,,Public,24 hours daily,,,,,,3,,,Non-Networked,,200-9,41.031464,-73.769946,2021-06-07,65278,2022-05-17 02:52:23 UTC,SG,,,2014-07-16,,,,,J1772,US,,,,Public,,public,,,PAY_GARAGE,,,,,,,$1.50 per hour,,,,,,,,,,
ELEC,Market 32,19 Centre Dr,,Plattsburgh,NY,12901,,518-562-3560,E,,Public,24 hours daily,,,,,,2,,,Non-Networked,,200-9,44.695363,-73.492162,2021-03-15,65281,2022-02-10 19:42:29 UTC,SG,,,2014-11-01,,,,,J1772,US,,,,Public,,public,,,GROCERY,,,,,,,Free,,,,,,,,,,
ELEC,Beacon Metro North Train Station,1 Ferry Plaza,Located off Route 9D,Beacon,NY,12508,,866-816-7584,E,,Public,24 hours daily,,,,,,4,,,EV Connect,http://evconnect.com/,200-8,41.505079,-73.983205,2020-04-08,65284,2021-03-11 23:22:17 UTC,SG,,,2018-04-01,,,,,J1772,US,,,,Public,,public,,,PAY_LOT,,,,,,,,,,,,,,,,,
ELEC,Stony Brook University,118 Administration,Located in the Admin Parking Garage - Level 3,Stony Brook,NY,11790,,631-632-2886,E,,Public - Credit card at all times,24 hours daily,A D M V,,,,,2,,,EV Connect,http://evconnect.com/,GPS,40.914818,-73.119813,2020-03-30,65285,2021-03-11 23:22:17 UTC,SG,,,2014-07-01,,,,,J1772,US,,,,Public - Carte de crédit en tout temps,,public,CREDIT_CARD_ALWAYS,,COLLEGE_CAMPUS,,,,,,,$2 per hour,,,,,,,,,,
ELEC,Port Authority Bus Terminal,625 8th Ave,,New York,NY,10018,,866-816-7584,E,,Public,24 hours daily,,,,,,2,,,EV Connect,http://evconnect.com/,200-8,40.756177,-73.990558,2020-04-08,65287,2021-03-11 23:22:17 UTC,J,,,2018-04-01,,,,,J1772,US,,,,Public,,public,,,PARKING_GARAGE,,,,,,,,,,,,,,,,,
ELEC,Bay Ridge Municipal Parking Garage,8501 5th Ave,Located on the 3rd floor,Brooklyn,NY,11209,,718-439-5699  866-816-7584,E,,Public,24 hours daily,,,,,,5,,,EV Connect,http://evconnect.com/,200-8,40.62215,-74.02565,2020-04-08,65288,2021-03-11 23:22:17 UTC,LG,,,2015-06-01,,,,,J1772,US,,,,Public,,public,,,PAY_GARAGE,,,,,,,Free,,,,,,,,,,
ELEC,Court Square Municipal Parking Garage,45 Court Square,"Located between Court Square East and Court Square West (Anable Street), South of Jackson avenue behind court house",Queens,NY,11101,,866-816-7584,E,,Public,24 hours daily,,,,,,9,,,EV Connect,http://evconnect.com/,200-9,40.745358,-73.942642,2020-06-09,65290,2021-03-11 23:22:17 UTC,LG,,,2014-12-29,,,,,J1772,US,,,,Public,,public,,,PARKING_LOT,,,,,,,Free,,,,,,,,,,
ELEC,East 149th Street Municipal Parking Garage,315 E 149th St,,Bronx,NY,10451,,718-292-4523  866-816-7584,E,,Public,24 hours daily,,,,,,3,,,EV Connect,http://evconnect.com/,200-9,40.817326,-73.920914,2020-04-08,65291,2021-03-11 23:22:17 UTC,LG,,,2015-06-01,,,,,J1772,US,,,,Public,,public,,,PARKING_LOT,,,,,,,Free,,,,,,,,,,
ELEC,Saint George Courthouse,54 Central Ave,,Staten Island,NY,10301,,718-524-1190  866-816-7584,E,,Public,24 hours daily,,,,,,5,,,EV Connect,http://evconnect.com/,200-9,40.63947,-74.076912,2020-04-08,65296,2021-03-11 23:22:17 UTC,LG,,,2016-08-08,,,,,J1772,US,,,,Public,,public,,,PARKING_LOT,,,,,,,,,,,,,,,,,
ELEC,Jamestown Community College,525 Falconer St,,Jamestown,NY,14702,,716-338-1000,E,,Public,24 hours daily,,,,,,2,,,EV Connect,http://evconnect.com/,GPS,42.114535,-79.217718,2021-05-06,65299,2021-12-06 18:36:15 UTC,LG,,,2015-10-01,,,,,J1772,US,,,,Public,,public,,,COLLEGE_CAMPUS,,,,,,,Free,,,,,,,,,,
ELEC,Rouses Point,139 Lake St,,Rouses Point,NY,12979,,866-816-7584,E,,Public,24 hours daily,,,,,,2,,,EV Connect,http://evconnect.com/,200-9,44.991537,-73.36399,2020-04-08,65302,2021-03-11 23:22:17 UTC,LG,,,2018-04-01,,,,,J1772,US,,,,Public,,public,,,PAY_GARAGE,,,,,,,,,,,,,,,,,
ELEC,Long Island Railroad - Freeport,Freeport Plaza E,Located at the North East corner of East Sunrise Highway and Henry St,Freeport,NY,11520,,866-816-7584  516-377-2300,E,,Public,24 hours daily; commuter permit required 6am-2pm,,,,,,1,,,EV Connect,http://evconnect.com/,GPS,40.656692,-73.580924,2020-04-08,65303,2021-03-11 23:22:17 UTC,LG,,,2016-05-15,,,,,J1772,US,,,,Public,,public,,,PAY_LOT,,,,,,,Free,,,,,,,,,,
ELEC,ScottTech,336 Court St,,Binghamton,NY,13904,,315-214-6065,E,,Public,24 hours daily,,,,,,1,,,Non-Networked,,200-9,42.103472,-75.892293,2021-06-07,67753,2022-02-10 19:42:29 UTC,P,,,2015-04-01,,,,,J1772,US,,,,Public,,public,,,OFFICE_BLDG,,,,,,,Free,,,,,,,,,,
ELEC,Price Chopper,1060 Madison Ave,,Albany,NY,12208,,518-438-6241,E,,Public,24 hours daily; maximum stay of 2 hours,,,,,,1,,,Non-Networked,,200-9,42.664671,-73.790463,2021-06-07,68579,2022-02-10 19:42:29 UTC,P,,,2015-05-01,,,,,J1772,US,,,,Public,,public,,,GROCERY,,,,,,,Free,,,,,,,,,,
ELEC,Fuccillo Nissan,3893 Route 31,,Liverpool,NY,13090,,315-944-3200,E,,Public - Call ahead,Dealership business hours,,,,,,1,,,Non-Networked,,200-8,43.185219,-76.242663,2020-06-09,70451,2021-03-11 23:22:17 UTC,P,,,2014-09-15,,,,,J1772,US,,,,Public - Appeler à l'avance,,public,CALL,,CAR_DEALER,,,,,,,Free,,,,,,,,,,
ELEC,Fuccillo Nissan - Latham,976 New Loudon Rd,,Latham,NY,12110,,518-250-4380,E,,Public - Call ahead,Dealership business hours,,,,,,1,,,Non-Networked,,200-9,42.76943,-73.754611,2020-06-09,70452,2021-03-11 23:22:17 UTC,P,,,2012-01-11,,,,,J1772,US,,,,Public - Appeler à l'avance,,public,CALL,,CAR_DEALER,,,,,,,Free,,,,,,,,,,
ELEC,SUNY ONEONTA SUNY ONEONTA,24-26 Ravine Pkwy N,,Oneonta,NY,13820,,888-758-4389,E,,Public,24 hours daily,,,,,,2,,,ChargePoint Network,http://www.chargepoint.com/,GPS,42.469481,-75.065723,2022-06-01,71024,2022-06-01 02:08:49 UTC,,,,2015-11-10,,,,,J1772,US,,,,Public,,public,,,,,,,,,,,,,,,,,,,,
ELEC,Saratoga Auto Museum,110 Avenue of the Pines,,Saratoga Springs,NY,12866,,518-587-1935,E,,Public,24 hours daily,,,,,,2,,,Non-Networked,,GPS,43.0573481806,-73.8047257907,2022-04-06,72698,2022-04-06 14:08:04 UTC,P,,,2016-01-25,,,,,,US,,,,Public,,public,,,MUSEUM,,,,,,,$0.25 per kWh,,,,,,,,,,
ELEC,Hampton Inn - Schenectady,450 State St,,Schenectady,NY,12305,,518-377-4500,E,,Public,24 hours daily for guests,,,,,,2,,,Non-Networked,,GPS,42.8121531,-73.9409169,2022-03-07,72907,2022-04-28 20:01:31 UTC,P,,,2014-01-01,,,,,J1772,US,,,,Public,,public,,,HOTEL,,,,,,,Free,,,,,,,,,,
ELEC,Hampton Inn - Albany,10 Ulenski Dr,,Albany,NY,12205,,518-438-2822,E,,Public,24 hours daily,,,,,,2,,,Non-Networked,,GPS,42.724676,-73.7954479,2021-06-07,72909,2022-02-10 19:42:29 UTC,P,,,2016-01-25,,,,,J1772,US,,,,Public,,public,,,HOTEL,,,,,,,$0.25 per kWh,,,,,,,,,,
ELEC,Hampton Inn - British American Blvd,45 British American Blvd,,Latham,NY,12110,,866-816-7584,E,,Public,24 hours daily,,,,,,2,,,EV Connect,http://evconnect.com/,GPS,42.768177,-73.82062,2021-01-14,72918,2021-03-11 23:22:17 UTC,P,,,2014-01-01,,,,,J1772,US,,,,Public,,public,,,HOSPITAL,,,,,,,,,,,,,,,,,
ELEC,Hampton Inn - Clifton Park,620 Plank Rd,,Clifton Park,NY,12065,,866-816-7584,E,,Public,24 hours daily,,,,,,2,,,EV Connect,http://evconnect.com/,GPS,42.865495,-73.778228,2021-01-14,72921,2021-04-29 16:38:44 UTC,P,,,2016-01-25,,,,,J1772,US,,,,Public,,public,,,HOTEL,,,,,,,$1.50 per hour,,,,,,,,,,
ELEC,Price Chopper Plaza,1395 New Scotland Rd,,Slingerlands,NY,12159,,518-478-0688,E,,Public,24 hours daily,,,,,,2,,,Non-Networked,,GPS,42.638663,-73.857186,2022-03-07,72970,2022-03-07 19:49:53 UTC,P,,,2016-01-25,,,,,J1772,US,,,,Public,,public,,,GROCERY,,,,,,,Free,,,,,,,,,,
ELEC,Davidson Nissan,18423 Route 11,,Watertown,NY,13601,,315-782-7700,E,,Public,Dealership business hours,,,,,,1,,,Non-Networked,,200-9,43.932998,-75.936638,2020-06-09,74631,2021-03-11 23:22:17 UTC,P,,,2016-03-01,,,,,J1772,US,,,,Public,,public,,,CAR_DEALER,,,,,,,Free,,,,,,,,,,
ELEC,Vision Nissan,2409 Rochester Rd,,Canandaigua,NY,14424,,585-393-0042,E,,Public,Dealership business hours,,,,,,1,,,Non-Networked,,200-9,42.916433,-77.300722,2020-06-09,74632,2021-03-11 23:22:17 UTC,P,,,2016-03-01,,,,,J1772,US,,,,Public,,public,,,CAR_DEALER,,,,,,,Free,,,,,,,,,,
ELEC,Rochester Institute of Technology - Lot M,1 Lomb Memorial Dr,,Rochester,NY,14623,,585-475-2074,E,,Public,24 hours daily; parking pass required,,,,,,2,,,Non-Networked,,200-9,43.08779,-77.674413,2021-05-06,75944,2022-04-28 20:01:31 UTC,P,,,2016-01-01,,,,,J1772,US,,,,Public,,public,,,COLLEGE_CAMPUS,,,,,,,Free,,,,,,,,,,
ELEC,SUNation Solar Systems,171 Remington Blvd,,Ronkonkoma,NY,11779,,631-750-9454,E,,Public,Dusk to dawn daily,,,,,,3,,,Non-Networked,,200-9,40.79009,-73.130392,2021-05-06,78416,2022-02-10 19:42:29 UTC,P,,,2016-07-01,,,,,J1772,US,,,,Public,,public,,,UTILITY,,,,,,,Free,,,,,,,,,SOLAR,
ELEC,Meier's Creek Brewing Co,33 Rippleton Rd,Located in the parking lot,Cazenovia,NY,13035,,315-815-4022,E,,Public,24 hours daily,,,,,,3,,,Non-Networked,,200-9,42.919517,-75.86605,2021-07-14,79175,2022-02-10 19:42:29 UTC,P,,,2016-07-01,,,,,J1772,US,,,,Public,,public,,,BREWERY_DISTILLERY_WINERY,,,,,,,Free,,,,,,,,,,
ELEC,Bob Johnson Chevrolet,1271 W Ridge Rd,,Rochester,NY,14615,,855-825-9684,E,,Public,24 hours daily; for customer use only,,,,,,1,1,,Non-Networked,,200-9,43.203546,-77.661537,2021-09-10,80871,2022-02-10 19:42:29 UTC,P,,,2010-01-01,,,,,J1772 J1772COMBO,US,,,,Public,,public,,,CAR_DEALER,,,,,,,Free,,,,,,,,,,
ELEC,Jim Barnard Chevrolet,7101 Buffalo Rd,,Churchville,NY,14428,,585-293-2120,E,,Public - Call ahead,Dealership business hours,,,,,,1,,,Non-Networked,,200-9,43.099649,-77.897024,2021-05-06,81608,2022-02-10 19:42:29 UTC,P,,,2010-01-01,,,,,J1772,US,,,,Public - Appeler à l'avance,,public,CALL,,CAR_DEALER,,,,,,,Free,,,,,,,,,,
ELEC,Fairport Electric,43 Lift Bridge Ln E,Located near S Water St,Fairport,NY,14450,,585-223-9500,E,,Public,24 hours daily,,,,,,1,,,EV Connect,http://evconnect.com/,GPS,43.10187,-77.43936,2021-06-07,82260,2021-12-06 18:36:15 UTC,LG,,,2019-12-27,,,,,J1772,US,,,,Public,,public,,,PARKING_LOT,,,,,,,Free,,,,,,,,,,
ELEC,Davidson Ford,3690 State Route 31,Located in the front of the building,Clay,NY,13090,,315-870-7000,E,,Public - Call ahead,Dealership business hours,,,,,,2,,,Non-Networked,,GPS,43.181259,-76.256973,2020-09-03,82355,2022-05-16 19:43:42 UTC,P,,,2017-04-01,,,,,J1772,US,,,,Public - Appeler à l'avance,,public,CALL,,CAR_DEALER,,,,,,,Free,,,,,,,,,,
ELEC,Reinstein Woods Nature Preserve,93 Honorine Dr,"Between Union & Transit Rds, off of Como Park Boulevard",Depew,NY,14043,,716-683-5959,E,,Public - Call ahead,"Sunrise to sunset daily, shut off between late November to April",,,,,2,,,,Non-Networked,,GPS,42.891613,-78.717862,2022-03-07,82545,2022-03-07 19:49:53 UTC,SG,,,2017-04-21,,,,,J1772,US,,,,Public - Appeler à l'avance,,public,CALL,,PARK,,,,,,,Free,,,,,,,,,SOLAR,
ELEC,Romeo Chevrolet,1665 Ulster Ave,,Lake Katrine,NY,12449,,845-943-4374,E,,Public,24 hours daily,,,,,,2,1,,Non-Networked,,200-9,41.980335,-73.990256,2021-05-06,85682,2022-02-10 19:42:29 UTC,P,,,2017-06-01,,,,,J1772 J1772COMBO,US,,,,Public,,public,,,CAR_DEALER,,,,,,,Free,,,,,,,,,,
ELEC,Catamount Ski,78 Catamount Rd,,Hillsdale,NY,12529,,518-325-3200,E,,Public - Call ahead,10am-5:30pm daily; Drivers must bring their own J1772 cordset for Level 1 charging,,,,,,1,,,Non-Networked,,200-8,42.171859,-73.477728,2022-03-07,85949,2022-03-07 19:49:53 UTC,P,,,2020-03-01,,,,,J1772,US,,,,Public - Appeler à l'avance,,public,CALL,,REC_SPORTS_FACILITY,,,,,,,Free,,,,,,,,,,
ELEC,Koeppel Nissan,74-15 Northern Blvd,,Jackson Heights,NY,11372,,877-505-6334,E,,Public - Call ahead,Dealership business hours,,,,,,2,1,,Non-Networked,,200-9,40.755072,-73.892094,2020-06-09,85969,2021-03-11 23:22:17 UTC,P,,,2017-03-01,,,,,CHADEMO J1772 J1772COMBO,US,,,,Public - Appeler à l'avance,,public,CALL,,CAR_DEALER,,,,,,,Free,,,,,,,,,,
ELEC,Maguire Nissan,716 W Genesee,,Syracuse,NY,13204,,315-802-4432,E,,Public - Call ahead,Dealership business hours,,,,,,2,,,Non-Networked,,200-8,43.053474,-76.163547,2020-06-09,85970,2021-03-11 23:22:17 UTC,P,,,2017-03-01,,,,,J1772,US,,,,Public - Appeler à l'avance,,public,CALL,,CAR_DEALER,,,,,,,Free,,,,,,,,,,
ELEC,Honest Weight Co-op,100 Watervliet Ave,,Albany,NY,12206,,518-482-2667,E,,Public,8am-10pm daily,,,,,,2,,,Non-Networked,,200-9,42.678984,-73.782529,2022-03-07,86199,2022-03-07 19:49:53 UTC,P,,,2017-07-01,,,,,J1772,US,,,,Public,,public,,,COOP,,,,,,,Free,,,,,,,,,,
ELEC,Marbletown Community Center,3562 Main St,Located in the parking lot,Stone Ridge,NY,12484,,845-687-0800,E,,Public,24 hours daily,,,,,,2,,,Non-Networked,,GPS,41.852574,-74.139946,2022-03-07,86200,2022-03-07 19:49:53 UTC,LG,,,2017-07-01,,,,,J1772,US,,,,Public,,public,,,MUNI_GOV,,,,,,,Free,,,,,,,,,,
ELEC,City of Binghamton - Recreation Park,88 Beethoven St,,Binghamton,NY,13901,,607-772-7017,E,,Public,24 hours daily,,,,,,2,,,Non-Networked,,200-8,42.099763,-75.935148,2022-03-07,86715,2022-03-07 19:49:53 UTC,LG,,,2017-08-10,,,,,J1772,US,,,,Public,,public,,,PARK,,,,,,,Free,,,,,,,,,,
ELEC,Prettejohn Public Parking Lot,17 Commercial St,Located behind the Livonia Inn,Livonia,NY,14487,,585-346-2010,E,,Public,24 hours daily,,,,,,2,,,Non-Networked,,GPS,42.821089,-77.668047,2022-03-07,87725,2022-03-07 19:49:53 UTC,LG,,,2017-09-13,,,,,J1772,US,,,,Public,,public,,,PARKING_LOT,,,,,,,Free,,,,,,,,,,
ELEC,Long Island Welcome Center,I-495 E,Between exits 51 and 52,Dix Hills,NY,11746,,631-254-0414,E,,Public,24 hours daily,,,,,,,2,,Non-Networked,,GPS,40.802658,-73.316725,2022-03-07,87914,2022-03-07 19:49:53 UTC,SG,,,2016-10-01,,,,,CHADEMO,US,,,,Public,,public,,,REST_STOP,,,,,,,Free,,,,,,,,,,
ELEC,Lakeland Park,11 Foreman St,,Cazenovia,NY,13035,,315-655-3041,E,,Public,Dawn to dusk daily,,,,,,2,,,Non-Networked,,200-8,42.929429,-75.859296,2020-03-03,88340,2022-05-17 02:22:20 UTC,LG,,,2017-10-01,,,,,J1772,US,,,,Public,,public,,,PARK,,,,,,,Free,,,,,,,,,,
ELEC,North Creek Heads in Beds,191 Main St,,North Creek,NY,12853,,518-412-2821,E,,Public,10am-10pm daily; for guest use only; Drivers must bring their own J1772 cordset for Level 1 charging,,,,,1,1,,,Non-Networked,,200-9,43.69475,-73.985344,2020-03-03,88498,2022-05-17 02:17:54 UTC,P,,,2017-11-15,,,,,J1772 NEMA520,US,,,,Public,,public,,,HOTEL,,,,,,,Free,,,,,,,,,,
ELEC,Price Chopper,3863 Route 31,,Liverpool,NY,13090,,315-622-6008,E,,Public,24 hours daily; 2 hour limit,,,,,,2,,,Non-Networked,,200-9,43.18835,-76.2455,2022-03-07,91865,2022-03-07 19:49:53 UTC,P,,,2018-01-01,,,,,J1772,US,,,,Public,,public,,,GROCERY,,,,,,,Free,,,,,,,,,,
ELEC,Town of Ashford,9377 Route 240,,West Valley,NY,14171,,716-942-6016,E,,Public,24 hours daily; Drivers must bring their own J1772 cordset for Level 1 charging,,,,,2,,,,Non-Networked,,200-9,42.406807,-78.612777,2022-03-07,92004,2022-03-07 19:49:53 UTC,LG,,,2018-02-01,,,,,NEMA520,US,,,,Public,,public,,,MUNI_GOV,,,,,,,Free,,,,,,,,,,
ELEC,Village of Sodus,14-16 Mill St,Enter municipal lot from Main or Gaylord Streets,Sodus,NY,14551,,315-483-9821,E,,Public,24 hours daily,,,,,,2,,,Non-Networked,,200-9,43.235555,-77.061621,2022-03-07,92116,2022-03-07 19:49:53 UTC,LG,,,2017-08-01,,,,,J1772,US,,,,Public,,public,,,MUNI_GOV,,,,,,,Free,,,,,,,,,,
ELEC,Fairport North - Main Parking,80 N Main St,Rear of Public Parking Lot,Fairport,NY,14450,,585-223-9500,E,,Public,24 hours daily,,,,,,6,,,EV Connect,http://evconnect.com/,GPS,43.104278,-77.440851,2021-06-07,94576,2021-12-06 18:36:15 UTC,LG,,,2019-12-27,,,,,J1772,US,,,,Public,,public,,,PARKING_LOT,,,,,,,Free,,,,,,,,,,
ELEC,Calspan Corp Flight Research Center,2041 Niagara Falls Blvd,,Niagara Falls,NY,14034,,866-816-7584,E,,Public,Office business hours; for employee and guest use only,,,,,,2,,,EV Connect,http://evconnect.com/,200-8,43.09971,-78.939097,2020-04-08,94826,2022-04-28 20:01:31 UTC,P,,,2014-07-07,,,,,J1772,US,,,,Public,,public,,,OFFICE_BLDG,,,,,,,,,,,,,,,,,
ELEC,Town of Dickinson,531 Old Front St,,Binghamton,NY,13905,,866-816-7584,E,,Public,24 hours daily,,,,,,2,,,EV Connect,http://evconnect.com/,200-9,42.11978,-75.912473,2020-04-08,94828,2021-03-11 23:22:17 UTC,LG,,,2017-07-12,,,,,J1772,US,,,,Public,,public,,,MUNI_GOV,,,,,,,,,,,,,,,,,
ELEC,Metro North Train Station - Southeast,4 Independent Way,,Brewster,NY,10590,,866-816-7584,E,,Public,24 hours daily,,,,,,4,,,EV Connect,http://evconnect.com/,200-9,41.416405,-73.624373,2020-04-08,94829,2021-03-11 23:22:17 UTC,P,,,2015-04-23,,,,,J1772,US,,,,Public,,public,,,SHOPPING_CENTER,,,,,,,,,,,,,,,,,
ELEC,Parking Garage,2478 Jerome Ave,,Bronx,NY,10468,,866-816-7584,E,,Public,Garage business hours,,,,,,1,,,EV Connect,http://evconnect.com/,200-8,40.863131,-73.900529,2021-08-04,94830,2021-12-06 18:36:15 UTC,P,,,2015-01-08,,,,,J1772,US,,,,Public,,public,,,PAY_GARAGE,,,,,,,,,,,,,,,,,
ELEC,Parking Garage,59 Paidge Ave,,Brooklyn,NY,11222,,866-816-7584,E,,Public,Garage business hours,,,,,,10,,,EV Connect,http://evconnect.com/,200-9,40.737171,-73.949257,2020-04-08,94831,2021-03-11 23:22:17 UTC,P,,,2016-06-24,,,,,J1772,US,,,,Public,,public,,,PAY_GARAGE,,,,,,,,,,,,,,,,,
ELEC,Brooklyn Navy Yard,63 Flushing Ave,,Brooklyn,NY,11205,,866-816-7584,E,,Public,24 hours daily,,,,,,8,,,EV Connect,http://evconnect.com/,200-8,40.698235,-73.975114,2020-04-08,94832,2021-03-11 23:22:17 UTC,LG,,,2016-07-20,,,,,J1772,US,,,,Public,,public,,,MUNI_GOV,,,,,,,,,,,,,,,,,
ELEC,Village of Champlain,1104 Route 9,,Champlain,NY,12919,,866-816-7584,E,,Public,24 hours daily,,,,,,2,,,EV Connect,http://evconnect.com/,200-9,44.983225,-73.444864,2020-06-09,94835,2021-03-11 23:22:17 UTC,LG,,,2017-09-19,,,,,J1772,US,,,,Public,,public,,,MUNI_GOV,,,,,,,,,,,,,,,,,
ELEC,The Lovett Group,109-15 14th Ave,,College Point,NY,11356,,866-816-7584,E,,Public,Office business hours; for employee and guest use only,,,,,,8,,,EV Connect,http://evconnect.com/,200-8,40.785772,-73.857401,2020-04-08,94836,2022-04-28 20:01:31 UTC,P,,,2016-06-22,,,,,J1772,US,,,,Public,,public,,,OFFICE_BLDG,,,,,,,,,,,,,,,,,
ELEC,Cortlandt Train Station,2 Memorial Dr,,Cortlandt Manor,NY,10566,,866-816-7584,E,,Public,24 hours daily,,,,,,4,,,EV Connect,http://evconnect.com/,GPS,41.244889,-73.92333,2020-03-30,94837,2021-03-11 23:22:17 UTC,P,,,2015-04-24,,,,,J1772,US,,,,Public,,public,,,TRAVEL_CENTER,,,,,,,,,,,,,,,,,
ELEC,Fair Haven Public Works,14523 Cayuga St,,Fair Haven,NY,13156,,866-816-7584,E,,Public,24 hours daily,,,,,,2,,,EV Connect,http://evconnect.com/,200-9,43.319653,-76.698558,2020-04-08,94838,2021-03-11 23:22:17 UTC,LG,,,2017-09-29,,,,,J1772,US,,,,Public,,public,,,MUNI_GOV,,,,,,,,,,,,,,,,,
ELEC,New York Power Authority - Blenheim-Gilboa Project,397 Power Plant Access Rd,,Gilboa,NY,12076,,866-816-7584,E,,Public,Business hours,,,,,,2,,,EV Connect,http://evconnect.com/,200-9,42.44229,-74.447636,2020-04-08,94840,2021-03-11 23:22:17 UTC,P,,,2016-05-29,,,,,J1772,US,,,,Public,,public,,,UTILITY,,,,,,,,,,,,,,,,,
ELEC,Marriott Hauppauge,850 Veterans Memorial Hwy,,Hauppauge,NY,11788,,866-816-7584,E,,Public - Call ahead,24 hours daily; for hotel guest use only,,,,,,2,,,EV Connect,http://evconnect.com/,GPS,40.819636,-73.204528,2020-12-03,94841,2022-04-28 20:01:31 UTC,P,,,2013-12-19,,,,,J1772,US,,,,Public - Appeler à l'avance,,public,CALL,,HOTEL,,,,,,,,,,,,,,,,,
ELEC,Office Building,40 Newbridge Rd,,Hicksville,NY,11801,,866-816-7584,E,,Public,Office business hours; for employee and guest use only,,,,,,3,,,EV Connect,http://evconnect.com/,200-8,40.76828,-73.528019,2020-04-08,94842,2022-04-28 20:01:31 UTC,P,,,2014-10-31,,,,,J1772,US,,,,Public,,public,,,OFFICE_BLDG,,,,,,,,,,,,,,,,,
ELEC,Homer Recreation Department,53 S Main St,,Homer,NY,13077,,866-816-7584,E,,Public,Business hours,,,,,,2,,,EV Connect,http://evconnect.com/,200-8,42.63465,-76.178589,2020-04-08,94843,2021-03-11 23:22:17 UTC,P,,,2017-09-13,,,,,J1772,US,,,,Public,,public,,,REC_SPORTS_FACILITY,,,,,,,,,,,,,,,,,
ELEC,Spectrum,133-19 Atlantic Ave,,Jamaica,NY,11418,,866-816-7584,E,,Public,Office business hours; for employee and guest use only,,,,,,2,,,EV Connect,http://evconnect.com/,200-8,40.696909,-73.816114,2020-04-08,94844,2022-04-28 20:01:31 UTC,P,,,2016-06-30,,,,,J1772,US,,,,Public,,public,,,OFFICE_BLDG,,,,,,,,,,,,,,,,,
ELEC,Central Parking Corp,15 W 5th St,,Jamestown,NY,14701,,866-816-7584,E,,Public,Garage business hours,,,,,,2,,,EV Connect,http://evconnect.com/,200-9,42.097522,-79.242525,2020-04-08,94845,2021-03-11 23:22:17 UTC,P,,,2015-07-22,,,,,J1772,US,,,,Public,,public,,,PAY_GARAGE,,,,,,,,,,,,,,,,,
ELEC,Delancey & Essex Municipal Parking Garage,107 Essex St,,Manhattan,NY,10002,,866-816-7584,E,,Public,24 hours daily,,,,,,5,,,EV Connect,http://evconnect.com/,200-8,40.719051,-73.988181,2020-04-08,94848,2021-03-11 23:22:17 UTC,LG,,,2015-03-20,,,,,J1772,US,,,,Public,,public,,,MUNI_GOV,,,,,,,,,,,,,,,,,
ELEC,Marcellus Village Police Department,6 Slocombe Ave,,Marcellus,NY,13108,,866-816-7584,E,,Public,24 hours daily,,,,,,1,,,EV Connect,http://evconnect.com/,200-9,42.98282,-76.34141,2020-04-08,94849,2021-03-11 23:22:17 UTC,LG,,,2017-04-12,,,,,J1772,US,,,,Public,,public,,,MUNI_GOV,,,,,,,,,,,,,,,,,
ELEC,Hilton,598 Broadhollow Rd,,Melville,NY,11747,,866-816-7584,E,,Public - Call ahead,24 hours daily; for hotel guest use only,,,,,,1,,,EV Connect,http://evconnect.com/,200-8,40.76379,-73.423658,2020-04-08,94850,2022-04-28 20:01:31 UTC,P,,,2016-04-03,,,,,J1772,US,,,,Public - Appeler à l'avance,,public,CALL,,HOTEL,,,,,,,,,,,,,,,,,
ELEC,New York State Department of Transportation - Exit 14 Park & Ride,367 NY-59,Located in North Lot,Nanuet,NY,10954,,866-816-7584,E,,Public,24 hours daily,,,,,,3,,,EV Connect,http://evconnect.com/,GPS,41.10363490203234,-74.02818166137693,2021-09-10,94851,2021-12-06 18:36:15 UTC,P,,,2016-12-06,,,,,J1772,US,,,,Public,,public,,,PARKING_LOT,,,,,,,Free,,,,,,,,,,
ELEC,Sky Zone Trampoline Park,33 LeCount Pl,,New Rochelle,NY,10801,,866-816-7584,E,,Public,Business hours,,,,,,4,,,EV Connect,http://evconnect.com/,200-9,40.911315,-73.779296,2020-04-08,94853,2021-03-11 23:22:17 UTC,P,,,2016-03-28,,,,,J1772,US,,,,Public,,public,,,OTHER_ENTERTAINMENT,,,,,,,,,,,,,,,,,
ELEC,Spectrum,401 W 219th St,,New York,NY,10034,,866-816-7584,E,,Public,Office business hours; for employee and guest use only,,,,,,8,,,EV Connect,http://evconnect.com/,200-8,40.87121,-73.911616,2020-04-08,94854,2022-04-28 20:01:31 UTC,P,,,2016-06-27,,,,,J1772,US,,,,Public,,public,,,OFFICE_BLDG,,,,,,,,,,,,,,,,,
ELEC,Residence Inn - Marriott Poughkeepsie,2525 South St,,Poughkeepsie,NY,12601,,866-816-7584,E,,Public - Call ahead,24 hours daily; for hotel guest use only,,,,,,2,,,EV Connect,http://evconnect.com/,GPS,41.660699,-73.932808,2020-10-09,94855,2022-04-28 20:01:31 UTC,P,,,2013-12-23,,,,,J1772,US,,,,Public - Appeler à l'avance,,public,CALL,,HOTEL,,,,,,,,,,,,,,,,,
ELEC,New York State Department of Transportation - Taste NY Market,4640 Taconic State Pkwy N,,Lagrangeville,NY,12540,,845-849-0247,E,,Public,Store business hours,,,,,,2,,,EV Connect,http://evconnect.com/,GPS,41.656857,-73.789422,2021-09-10,94856,2021-12-06 18:36:15 UTC,P,,,2020-03-25,,,,,J1772,US,,,,Public,,public,,,GROCERY,,,,,,,Free,,,,,,,,,,
ELEC,Courtyard Marriott,631 Midland Ave,,Rye,NY,10580,,866-816-7584,E,,Public - Call ahead,24 hours daily; for hotel guest use only,,,,,,2,,,EV Connect,http://evconnect.com/,200-9,40.989535,-73.672445,2020-04-08,94858,2022-04-28 20:01:31 UTC,P,,,2014-03-01,,,,,J1772,US,,,,Public - Appeler à l'avance,,public,CALL,,HOTEL,,,,,,,,,,,,,,,,,
ELEC,Homewood Suites,3368 S Broadway,,Saratoga Springs,NY,12866,,866-816-7584,E,,Public - Call ahead,24 hours daily; for hotel guest use only,,,,,,2,,,EV Connect,http://evconnect.com/,GPS,43.05419501266957,-73.78681016931154,2020-04-08,94859,2022-04-28 20:01:31 UTC,P,,,2017-09-19,,,,,J1772,US,,,,Public - Appeler à l'avance,,public,CALL,,HOTEL,,,,,,,,,,,,,,,,,
ELEC,Stony Brook University,100 Nicolls Rd,,Stony Brook,NY,11794,,866-816-7584,E,,Public,24 hours daily,,,,,,2,,,EV Connect,http://evconnect.com/,200-8,40.913685,-73.116048,2020-04-08,94862,2021-03-11 23:22:17 UTC,P,,,2014-07-13,,,,,J1772,US,,,,Public,,public,,,COLLEGE_CAMPUS,,,,,,,,,,,,,,,,,
ELEC,Residence Inn,6420 Yorktown Cir,,Syracuse,NY,13057,,866-816-7584,E,,Public - Call ahead,24 hours daily; for hotel guest use only,,,,,,2,,,EV Connect,http://evconnect.com/,200-9,43.09077,-76.088086,2020-04-08,94863,2022-04-28 20:01:31 UTC,P,,,2013-11-28,,,,,J1772,US,,,,Public - Appeler à l'avance,,public,CALL,,HOTEL,,,,,,,,,,,,,,,,,
ELEC,Westchester County Department of Health,134 Main St,,White Plains,NY,10601,,866-816-7584,E,,Public,24 hours daily,,,,,,3,,,EV Connect,http://evconnect.com/,200-8,41.031941,-73.769376,2020-06-09,94865,2021-03-11 23:22:17 UTC,LG,,,2014-07-06,,,,,J1772,US,,,,Public,,public,,,MUNI_GOV,,,,,,,,,,,,,,,,,
ELEC,Windsor Town Court Room,124 Main St,,Windsor,NY,13865,,866-816-7584,E,,Public,24 hours daily,,,,,,2,,,EV Connect,http://evconnect.com/,200-9,42.077966,-75.639472,2020-04-08,94868,2021-03-11 23:22:17 UTC,LG,,,2017-10-26,,,,,J1772,US,,,,Public,,public,,,MUNI_GOV,,,,,,,,,,,,,,,,,
ELEC,Art Delta New York,25-20 Brooklyn Queens Expy,,Woodside,NY,11377,,866-816-7584,E,,Public,Office business hours; for employee and guest use only,,,,,,2,,,EV Connect,http://evconnect.com/,GPS,40.763053,-73.902931,2020-06-09,94869,2022-04-28 20:01:31 UTC,P,,,2016-06-29,,,,,J1772,US,,,,Public,,public,,,OFFICE_BLDG,,,,,,,,,,,,,,,,,
ELEC,City of Yonkers,40 S Broadway,,Yonkers,NY,10701,,866-816-7584,E,,Public,24 hours daily,,,,,,3,,,EV Connect,http://evconnect.com/,200-9,40.932276,-73.897606,2020-04-08,94870,2021-03-11 23:22:17 UTC,LG,,,2017-04-06,,,,,J1772,US,,,,Public,,public,,,MUNI_GOV,,,,,,,,,,,,,,,,,
ELEC,Yonkers Parking Authority,8 Buena Vista Ave,,Yonkers,NY,10701,,866-816-7584,E,,Public,24 hours daily,,,,,,4,,,EV Connect,http://evconnect.com/,200-9,40.93427,-73.902149,2020-04-08,94871,2021-03-11 23:22:17 UTC,LG,,,2016-04-18,,,,,J1772,US,,,,Public,,public,,,MUNI_GOV,,,,,,,,,,,,,,,,,
ELEC,Central Parking - Tower 31,9 W 31st Street,,New York,NY,10001,,888-998-2546,E,,Public,MON: 24 hours | TUE: 24 hours | WED: 24 hours | THU: 24 hours | FRI: 24 hours | SAT: 24 hours | SUN: 24 hours,,,,,,1,,,Blink Network,http://www.blinkcharging.com/,GPS,40.747098,-73.986641,2022-06-01,95069,2022-06-01 22:55:14 UTC,,,,2014-08-20,,,,,J1772,US,,,,Public,,public,,,,,,,,,,Level 2: $0.59 per kWh,,,,,,,,,,
ELEC,iPark - Paradise Garage,62-60 99th Street,"Attendant will assist in charging 
vehicle.  Parking rates apply. Inquire 
within.
",Rego Park,NY,11374,,888-998-2546,E,,Public,MON: 24 hours | TUE: 24 hours | WED: 24 hours | THU: 24 hours | FRI: 24 hours | SAT: 24 hours | SUN: 24 hours,,,,,,2,,,Blink Network,http://www.blinkcharging.com/,GPS,40.733347,-73.858012,2022-06-01,95270,2022-06-01 22:55:14 UTC,,,,2015-03-15,,,,,J1772,US,,,,Public,,public,,,,,,,,,,Level 2: $0.59 per kWh,,,,,,,,,,
ELEC,Castle Village Parking Garage,200 Cabrini Boulevard,"Garage entrance is from Cabrini Blvd. 
Unit is on the Main Floor. Pull down 
the drive way and make your first left.
",New York,NY,10033,,888-998-2546,E,,Public,MON: 24 hours | TUE: 24 hours | WED: 24 hours | THU: 24 hours | FRI: 24 hours | SAT: 24 hours | SUN: 24 hours,,,,,,1,,,Blink Network,http://www.blinkcharging.com/,GPS,40.854693,-73.939432,2022-06-01,95779,2022-06-01 22:55:14 UTC,,,,2018-03-07,,,,,J1772,US,,,,Public,,public,,,,,,,,,,Level 2: $0.41 per kWh,,,,,,,,,,
ELEC,"First Avenue Parking, LLC",630 1st Avenue,"Chargers under repair. Monthly parking 
only.
",New York,NY,10016,,888-998-2546,E,,Public,MON: 24 hours | TUE: 24 hours | WED: 24 hours | THU: 24 hours | FRI: 24 hours | SAT: 24 hours | SUN: 24 hours,,,,,,2,,,Blink Network,http://www.blinkcharging.com/,GPS,40.745096,-73.971921,2022-06-01,96624,2022-06-01 22:55:14 UTC,,,,2015-05-22,,,,,J1772,US,,,,Public,,public,,,,,,,,,,Level 2: $0.59 per kWh,,,,,,,,,,
ELEC,Tony Mangino Mitsubishi,1658 Route 9,,Clifton Park,NY,12065,,518-373-4100,E,,Public,24 hours daily; priority for Mitsubishi vehicles,,,,,,2,,,Non-Networked,,200-9,42.858085,-73.762909,2021-06-07,98431,2022-02-10 19:42:29 UTC,P,,,2012-01-01,,,,,J1772,US,,,,Public,,public,,,CAR_DEALER,,,,,,,Free,,,,,,,,,,
ELEC,James Mitsubishi - Hamburg,5160 Camp Rd,Located at the rear of the dealership,Hamburg,NY,14075,,315-356-4444,E,,Public,24 hours daily,,,,,,2,,,Non-Networked,,200-9,42.746772,-78.852481,2022-03-07,98836,2022-03-07 19:49:53 UTC,P,,,2018-04-01,,,,,J1772,US,,,,Public,,public,,,CAR_DEALER,,,,,,,Free,,,,,,,,,,
ELEC,Village of Waterville - West Main Street,115 W Main St,,Waterville,NY,13480,,315-841-4221,E,,Public,24 hours daily,,,,,,2,,,Non-Networked,,200-8,42.930765,-75.38053,2022-03-07,99360,2022-03-07 19:49:53 UTC,LG,,,2018-04-18,,,,,J1772,US,,,,Public,,public,,,STREET_PARKING,,,,,,,Free,,,,,,,,,,
ELEC,Nissan of Staten Island,1976 Hylan Blvd,,Staten Island,NY,10306,,718-447-3800,E,,Public,Dealership business hours,,,,,,1,,,Non-Networked,,200-9,40.581432,-74.097694,2020-06-09,99500,2021-03-11 23:22:17 UTC,P,,,2018-06-28,,,,,J1772,US,,,,Public,,public,,,CAR_DEALER,,,,,,,Free,,,,,,,,,,
ELEC,Town of Veteran,4049 Watkins Rd,Located in the back on white outbuilding; near the parking spaces reserved for electric vehicles,Millport,NY,14864,,607-739-1476,E,,Public,24 hours daily,,,,,,2,,,Non-Networked,,200-9,42.250834,-76.838332,2020-03-03,99950,2022-05-17 14:44:56 UTC,LG,,,2018-07-01,,,,,J1772,US,,,,Public,,public,,,MUNI_GOV,,,,,,,Free,,,,,,,,,,
ELEC,Colonie Center - Tesla Supercharger,131 Colonie Center,,Albany,NY,12205,,877-798-3752,E,,Public,24 hours daily; for Tesla use only,,,,,,,6,,Tesla,https://www.tesla.com/supercharger,200-8,42.710356,-73.819109,2021-10-11,102325,2021-11-04 18:37:47 UTC,P,,,2014-05-01,,,,,TESLA,US,,,,Public,,public,,,,,,,,,,$0.28 per kWh; $0.26 per minute above 60 kW and $0.13 per minute at or below 60 kW,,,,,,,,,,
ELEC,The Spot Restaurant - Tesla Supercharger,1062 Front Street,,Binghamton,NY,13905,,877-798-3752,E,,Public,24 hours daily; for Tesla use only,,,,,,,8,,Tesla,https://www.tesla.com/supercharger,200-9,42.145542,-75.902081,2021-10-11,102326,2021-11-04 18:37:47 UTC,P,,,2015-10-01,,,,,TESLA,US,,,,Public,,public,,,,,,,,,,$0.28 per kWh; $0.26 per minute above 60 kW and $0.13 per minute at or below 60 kW,,,,,,,,,,
ELEC,North 12 Parking (at the William Vale) - Tesla Supercharger,113 N. 12th Street,,Brooklyn,NY,11249,,877-798-3752,E,,Public,24 hours daily; for Tesla use only,,,,,,,4,,Tesla,https://www.tesla.com/supercharger,200-8,40.721853,-73.956658,2021-10-11,102327,2021-11-04 18:37:47 UTC,P,,,2018-07-23,,,,,TESLA,US,,,,Public,,public,,,,,,,,,,$0.28 per kWh; $0.26 per minute above 60 kW and $0.13 per minute at or below 60 kW,,,,,,,,,,
ELEC,Shops at Main / Transit - Tesla Supercharger,4455  Transit Road,,Buffalo,NY,14221,,877-798-3752,E,,Public,24 hours daily; for Tesla use only,,,,,,,8,,Tesla,https://www.tesla.com/supercharger,200-9,42.968675,-78.69568,2021-10-11,102328,2021-11-04 18:37:47 UTC,P,,,2015-06-01,,,,,TESLA,US,,,,Public,,public,,,,,,,,,,$0.28 per kWh; $0.26 per minute above 60 kW and $0.13 per minute at or below 60 kW,,,,,,,,,,
ELEC,Stewart’s Shop - Tesla Supercharger,2300 Salt Point Turnpike,,Clinton Corners,NY,12514,,877-798-3752,E,,Public,24 hours daily; for Tesla use only,,,,,,,8,,Tesla,https://www.tesla.com/supercharger,200-9,41.825379,-73.770409,2021-10-11,102329,2021-11-04 18:37:47 UTC,P,,,2018-07-23,,,,,TESLA,US,,,,Public,,public,,,CONVENIENCE_STORE,,,,,,,$0.28 per kWh; $0.26 per minute above 60 kW and $0.13 per minute at or below 60 kW,,,,,,,,,,
ELEC,Crossgates Mall - Tesla Supercharger,1 Crossgates Mall Road,,Guilderland,NY,12203,,877-798-3752,E,,Public,24 hours daily; for Tesla use only,,,,,,,20,,Tesla,https://www.tesla.com/supercharger,200-8,42.68869,-73.853254,2021-10-11,102330,2021-11-04 18:37:47 UTC,P,,,2018-07-23,,,,,TESLA,US,,,,Public,,public,,,,,,,,,,$0.28 per kWh; $0.26 per minute above 60 kW and $0.13 per minute at or below 60 kW,,,,,,,,,,
ELEC,QuickChek - Tesla Supercharger,640 Washington Ave.,,Kingston,NY,12401,,877-798-3752,E,,Public,24 hours daily; for Tesla use only,,,,,,,8,,Tesla,https://www.tesla.com/supercharger,200-9,41.941893,-74.027428,2021-10-11,102331,2021-11-04 18:37:47 UTC,P,,,2016-10-01,,,,,TESLA,US,,,,Public,,public,,,,,,,,,,$0.28 per kWh; $0.26 per minute above 60 kW and $0.13 per minute at or below 60 kW,,,,,,,,,,
ELEC,Holiday Inn - Tesla Supercharger,441 Electronics Parkway,,Liverpool,NY,13088,,877-798-3752,E,,Public,24 hours daily; for Tesla use only,,,,,,,8,,Tesla,https://www.tesla.com/supercharger,200-8,43.102424,-76.187446,2021-10-11,102332,2021-11-04 18:37:47 UTC,P,,,2015-03-01,,,,,TESLA,US,,,,Public,,public,,,,,,,,,,$0.28 per kWh; $0.26 per minute above 60 kW and $0.13 per minute at or below 60 kW,,,,,,,,,,
ELEC,New Roc Garage - Tesla Supercharger,33 LeCount Place and Huguenot Street,,New Rochelle,NY,10801,,877-798-3752,E,,Public,24 hours daily; for Tesla use only,,,,,,,8,,Tesla,https://www.tesla.com/supercharger,GPS,40.912547,-73.780488,2021-10-11,102333,2021-11-04 18:37:47 UTC,P,,,2018-07-23,,,,,TESLA,US,,,,Public,,public,,,,,,,,,,$0.28 per kWh; $0.26 per minute above 60 kW and $0.13 per minute at or below 60 kW,,,,,,,,,,
ELEC,Mott Street Parking - Tesla Supercharger,106 Mott Street,,New York,NY,10013,,877-798-3752,E,,Public,24 hours daily; for Tesla use only,,,,,,,2,,Tesla,https://www.tesla.com/supercharger,200-9,40.717522,-73.997302,2021-10-11,102334,2021-11-04 18:37:47 UTC,P,,,2018-07-23,,,,,TESLA,US,,,,Public,,public,,,,,,,,,,$0.28 per kWh; $0.26 per minute above 60 kW and $0.13 per minute at or below 60 kW,,,,,,,,,,
ELEC,W 75th Parking Garage - Tesla Supercharger,201 W 75th Street,,New York,NY,10023,,877-798-3752,E,,Public,24 hours daily; for Tesla use only,,,,,,,4,,Tesla,https://www.tesla.com/supercharger,200-8,40.780976,-73.980414,2021-10-11,102335,2021-11-04 18:37:47 UTC,P,,,2018-07-23,,,,,TESLA,US,,,,Public,,public,,,,,,,,,,$0.28 per kWh; $0.26 per minute above 60 kW and $0.13 per minute at or below 60 kW,,,,,,,,,,
ELEC,E 47th Street - Tesla Supercharger,212 East 47th Street,,New York,NY,10017,,877-798-3752,E,,Public,24 hours daily; for Tesla use only,,,,,,,4,,Tesla,https://www.tesla.com/supercharger,200-9,40.753356,-73.971685,2021-10-11,102336,2021-11-04 18:37:47 UTC,P,,,2018-07-23,,,,,TESLA,US,,,,Public,,public,,,,,,,,,,$0.28 per kWh; $0.26 per minute above 60 kW and $0.13 per minute at or below 60 kW,,,,,,,,,,
ELEC,125 Victory Hwy - Tesla Supercharger,125 Victory Hwy,,Painted Post,NY,14870,,877-798-3752,E,,Public,24 hours daily; for Tesla use only,,,,,,,10,,Tesla,https://www.tesla.com/supercharger,200-9,42.170757,-77.108063,2021-10-11,102338,2021-11-04 18:37:47 UTC,P,,,2018-07-23,,,,,TESLA,US,,,,Public,,public,,,,,,,,,,$0.28 per kWh; $0.26 per minute above 60 kW and $0.13 per minute at or below 60 kW,,,,,,,,,,
ELEC,Country Pointe Plainview - Tesla Supercharger,1427 Old Country Road,,Plainview,NY,11803,,877-798-3752,E,,Public,24 hours daily; for Tesla use only,,,,,,,8,,Tesla,https://www.tesla.com/supercharger,200-8,40.779854,-73.450709,2021-10-11,102339,2021-11-04 18:37:47 UTC,P,,,2018-07-23,,,,,TESLA,US,,,,Public,,public,,,,,,,,,,$0.28 per kWh; $0.26 per minute above 60 kW and $0.13 per minute at or below 60 kW,,,,,,,,,,
ELEC,Champlain Centre - Tesla Supercharger,60 Smithfield Blvd.,,Plattsburgh,NY,12901,,877-798-3752,E,,Public,24 hours daily; for Tesla use only,,,,,,,8,,Tesla,https://www.tesla.com/supercharger,200-8,44.704537,-73.491829,2021-10-11,102340,2021-11-04 18:37:47 UTC,P,,,2016-06-01,,,,,TESLA,US,,,,Public,,public,,,,,,,,,,$0.28 per kWh; $0.26 per minute above 60 kW and $0.13 per minute at or below 60 kW,,,,,,,,,,
ELEC,JFK Airport Travel Plaza - Tesla Supercharger,150th Ave and 147th St,,Queens,NY,11430,,877-798-3752,E,,Public,24 hours daily; for Tesla use only,,,,,,,4,,Tesla,https://www.tesla.com/supercharger,GPS,40.66179,-73.79282,2021-10-11,102341,2021-11-04 18:37:47 UTC,P,,,2013-12-15,,,,,TESLA,US,,,,Public,,public,,,,,,,,,,$0.28 per kWh; $0.26 per minute above 60 kW and $0.13 per minute at or below 60 kW,,,,,,,,,,
ELEC,Aviation Mall - Tesla Supercharger,578 Aviation Road,,Queensbury,NY,12804,,877-798-3752,E,,Public,24 hours daily; for Tesla use only,,,,,,,8,,Tesla,https://www.tesla.com/supercharger,200-8,43.328388,-73.679992,2021-10-11,102342,2021-11-04 18:37:47 UTC,P,,,2016-07-15,,,,,TESLA,US,,,,Public,,public,,,,,,,,,,$0.28 per kWh; $0.26 per minute above 60 kW and $0.13 per minute at or below 60 kW,,,,,,,,,,
ELEC,Cafe Crust - Tesla Supercharger,850 County Road 39,,Southampton,NY,11968,,877-798-3752,E,,Public,24 hours daily; for Tesla use only,,,,,,,8,,Tesla,https://www.tesla.com/supercharger,200-9,40.891909,-72.426995,2021-10-11,102343,2021-11-04 18:37:47 UTC,P,,,2016-06-01,,,,,TESLA,US,,,,Public,,public,,,,,,,,,,$0.28 per kWh; $0.26 per minute above 60 kW and $0.13 per minute at or below 60 kW,,,,,,,,,,
ELEC,Green Acres Commons - Tesla Supercharger,"2034 Green Acres Mall, Sunrise Highway",,Valley Stream,NY,11581,,877-798-3752,E,,Public,24 hours daily; for Tesla use only,,,,,,,16,,Tesla,https://www.tesla.com/supercharger,200-9,40.664127,-73.7251,2021-10-11,102344,2021-11-04 18:37:47 UTC,P,,,2018-07-23,,,,,TESLA,US,,,,Public,,public,,,,,,,,,,$0.28 per kWh; $0.26 per minute above 60 kW and $0.13 per minute at or below 60 kW,,,,,,,,,,
ELEC,Sheraton Tarrytown Hotel - Tesla Supercharger,600 White Plains Road,,Tarrytown,NY,10591,,877-798-3752,E,,Public,24 hours daily; for Tesla use only,,,,,,,12,,Tesla,https://www.tesla.com/supercharger,200-8,41.0615,-73.836457,2021-10-11,102346,2021-11-04 18:37:47 UTC,P,,,2017-01-15,,,,,TESLA,US,,,,Public,,public,,,,,,,,,,$0.28 per kWh; $0.26 per minute above 60 kW and $0.13 per minute at or below 60 kW,,,,,,,,,,
ELEC,North Utica Shopping Center - Tesla Supercharger,50 Auert Ave.,,Utica,NY,13502,,877-798-3752,E,,Public,24 hours daily; for Tesla use only,,,,,,,8,,Tesla,https://www.tesla.com/supercharger,200-9,43.113878,-75.206857,2021-10-11,102347,2021-11-04 18:37:47 UTC,P,,,2015-02-01,,,,,TESLA,US,,,,Public,,public,,,,,,,,,,$0.28 per kWh; $0.26 per minute above 60 kW and $0.13 per minute at or below 60 kW,,,,,,,,,,
ELEC,Eastview Mall - Tesla Supercharger,7979 Pittsford Victor Rd,,Victor,NY,14564,,877-798-3752,E,,Public,24 hours daily; for Tesla use only,,,,,,,8,,Tesla,https://www.tesla.com/supercharger,200-8,43.028655,-77.440128,2021-10-11,102348,2021-11-04 18:37:47 UTC,P,,,2017-09-01,,,,,TESLA,US,,,,Public,,public,,,,,,,,,,$0.28 per kWh; $0.26 per minute above 60 kW and $0.13 per minute at or below 60 kW,,,,,,,,,,
ELEC,del Lago Resort and Casino - Tesla Supercharger,1133 Route 414,,Waterloo,NY,13165,,877-798-3752,E,,Public,24 hours daily; for Tesla use only,,,,,,,8,,Tesla,https://www.tesla.com/supercharger,200-8,42.969252,-76.846005,2021-10-11,102349,2021-11-04 18:37:47 UTC,P,,,2017-09-01,,,,,TESLA,US,,,,Public,,public,,,,,,,,,,$0.28 per kWh; $0.26 per minute above 60 kW and $0.13 per minute at or below 60 kW,,,,,,,,,,
ELEC,Salmon Run Mall - Tesla Supercharger,21182 Salmon Run Mall Loop W,,Watertown,NY,13601,,877-798-3752,E,,Public,24 hours daily; for Tesla use only,,,,,,,8,,Tesla,https://www.tesla.com/supercharger,200-9,43.979585,-75.954114,2021-10-11,102350,2021-11-04 18:37:47 UTC,P,,,2016-06-01,,,,,TESLA,US,,,,Public,,public,,,,,,,,,,$0.28 per kWh; $0.26 per minute above 60 kW and $0.13 per minute at or below 60 kW,,,,,,,,,,
ELEC,Westchester's Ridge Hill - Tesla Supercharger,Archer Street,,Yonkers,NY,10701,,877-798-3752,E,,Public,24 hours daily; for Tesla use only,,,,,,,18,,Tesla,https://www.tesla.com/supercharger,GPS,40.963395,-73.854936,2021-10-11,102351,2021-11-04 18:37:47 UTC,P,,,2018-07-23,,,,,TESLA,US,,,,Public,,public,,,,,,,,,,$0.28 per kWh; $0.26 per minute above 60 kW and $0.13 per minute at or below 60 kW,,,,,,,,,,
ELEC,Village of Lima,7327 E Main St,"Located in the municipal parking lot behind the Lima Courthouse, 200 feet east of the intersection of routes 5&20 and 15A",Lima,NY,14485,,585-624-2210,E,,Public,24 hours daily,,,,,,2,,,EV Connect,http://evconnect.com/,GPS,42.905519,-77.611086,2021-06-07,103810,2021-12-06 18:36:15 UTC,P,,,2018-09-17,,,,,J1772,US,,,,Public,,public,,,MUNI_GOV,,,,,,,Free,,,,,,,,,,
ELEC,Village of Cherry Valley,2 Genesee St,Located near Village Park entrance,Cherry Valley,NY,13320,,607-264-3791,E,,Public,24 hours daily,,,,,,2,,,Non-Networked,,200-9,42.797294,-74.758022,2020-03-03,104135,2022-02-24 19:40:27 UTC,P,,,2018-10-04,,,,,J1772,US,,,,Public,,public,,,PARKING_LOT,,,,,,,Free,,,,,,,,,,
ELEC,WCS NS1 BOSTON RD,Boston Rd,,Bronx,NY,10460,,888-758-4389,E,,Public,24 hours daily,,,,,,1,,,ChargePoint Network,http://www.chargepoint.com/,GPS,40.846205,-73.876513,2022-06-01,104341,2022-06-01 01:51:15 UTC,,,,2018-10-24,,,,,J1772,US,,,,Public,,public,,,,,,,,,,,,,,,,,,,,
ELEC,Western New York Welcome Center,2182 Alvin Rd,Accessible from I-190 exit 19 via Alvin Road,Grand Island,NY,14072,,518-436-2831,E,,Public,24 hours daily,,,,,,,3,,Non-Networked,,GPS,43.01931644111694,-78.97480837406613,2022-03-07,104725,2022-03-07 19:49:53 UTC,P,,,2018-08-01,,,,,CHADEMO J1772COMBO,US,,,,Public,,public,,,TRAVEL_CENTER,,,,,,,Free,,,,,,,,,,
ELEC,Augspurger Ramp,362 Pearl St,,Buffalo,NY,14202,,716-849-5812  866-816-7584,E,,Public - Credit card at all times,24 hours daily; must use EVConnect app for payment,A D Debit M V,,,,,6,,,EV Connect,http://evconnect.com/,200-8,42.889784,-78.874463,2021-12-09,104726,2022-02-10 19:42:29 UTC,LG,,,2018-04-01,,,,,J1772,US,,,,Public - Carte de crédit en tout temps,,public,CREDIT_CARD_ALWAYS,,PAY_GARAGE,,,,,,,$0.10 per kWh,,,,,,,,,,
ELEC,Main Place Ramp,221 Pearl St,,Buffalo,NY,14202,,716-849-5812  866-816-7584,E,,Public - Credit card at all times,24 hours daily; must use EVConnect app for payment,A D Debit M V,,,,,4,,,EV Connect,http://evconnect.com/,GPS,42.883926,-78.87605,2021-12-09,104727,2022-02-10 19:42:29 UTC,LG,,,2018-04-01,,,,,J1772,US,,,,Public - Carte de crédit en tout temps,,public,CREDIT_CARD_ALWAYS,,PAY_GARAGE,,,,,,,"$0.18 per kWh for 20 minutes, $20 per hour after; parking fee",,,,,,,,,,
ELEC,Turner Ramp,1 Perkins Dr,,Buffalo,NY,14202,,716-849-5812  866-816-7584,E,,Public - Credit card at all times,24 hours daily; must use EVConnect app for payment,A D Debit M V,,,,,4,,,EV Connect,http://evconnect.com/,GPS,42.885934,-78.879364,2021-12-09,104729,2022-02-10 19:42:29 UTC,LG,,,2018-04-01,,,,,J1772,US,,,,Public - Carte de crédit en tout temps,,public,CREDIT_CARD_ALWAYS,,PAY_GARAGE,,,,,,,$0.10 per kWh; pay parking,,,,,,,,,,
ELEC,Adam Ramp,343 Washington St,,Buffalo,NY,14203,,716-849-5812  866-816-7584,E,,Public - Credit card at all times,24 hours daily; must use EVConnect app for payment,A D Debit M V,,,,,6,,,EV Connect,http://evconnect.com/,GPS,42.883894,-78.873775,2021-12-09,104731,2022-02-10 19:42:29 UTC,LG,,,2018-04-01,,,,,J1772,US,,,,Public - Carte de crédit en tout temps,,public,CREDIT_CARD_ALWAYS,,PAY_GARAGE,,,,,,,$0.10 per kWh; parking fee,,,,,,,,,,
ELEC,TownePlace Suites - Buffalo Airport,4265 Genesee St,,Buffalo,NY,14225,,716-839-1880,E,,Public,24 hours daily; chargers for guest use only,,,,,,4,,,Non-Networked,,GPS,42.93057,-78.728499,2022-03-07,104733,2022-04-28 20:01:31 UTC,P,,,2018-11-01,,,,,J1772,US,,,,Public,,public,,,HOTEL,,,,,,,Free,,,,,,,,,,
ELEC,Buffalo State - Cleveland Hall,1300 Elmwood Ave,,Buffalo,NY,14222,,716-878-3041,E,,Public,24 hours daily,,,,,,2,,,Non-Networked,,GPS,42.932067,-78.88137,2022-03-07,104734,2022-03-07 19:49:53 UTC,P,,,2018-02-01,,,,,J1772,US,,,,Public,,public,,,COLLEGE_CAMPUS,,,,,,,Free,,,,,,,,,,
ELEC,Town of Danby - Town Hall,1830 Danby Rd,"NYS Route 96B, about 6 miles south of the Ithaca Commons",Danby,NY,14850,,607-277-4788,E,,Public,24 hours daily; EVConnect App or key fob required for access; see Town Hall for key fob,,,,,,2,,,EV Connect,http://evconnect.com/,GPS,42.354047,-76.481886,2021-06-07,104824,2021-12-06 18:36:15 UTC,LG,,,2018-10-20,,,,,J1772,US,,,,Public,,public,,,MUNI_GOV,,,,,,,Free,,,,,,,,,,
ELEC,Southern Tier Welcome Center,2 Route 81 N,,Kirkwood,NY,13795,,607-775-0156,E,,Public,24 hours daily,,,,,,,2,,Non-Networked,,GPS,42.020139,-75.780637,2022-03-07,104977,2022-03-07 19:49:53 UTC,SG,,,2017-10-05,,,,,CHADEMO J1772COMBO,US,,,,Public,,public,,,TRAVEL_CENTER,,,,,,,Free,,,,,,,,,,
ELEC,Queensbury Rest Area - Northbound,368 Big Boom Rd,I-87,Queensbury,NY,12804,,518-457-6195,E,,Public,24 hours daily,,,,,,,2,,Non-Networked,,GPS,43.273451,-73.674594,2020-03-03,104978,2022-05-16 15:38:58 UTC,SG,,,2018-09-20,,,,,CHADEMO J1772COMBO,US,,,,Public,,public,,,TRAVEL_CENTER,,,,,,,Free,,,,,,,,,,
ELEC,Mohawk Ramp,477 Washington St,,Buffalo,NY,14203,,716-849-5812  866-816-7584,E,,Public,24 hours daily,,,,,,2,,,EV Connect,http://evconnect.com/,GPS,42.887468,-78.872406,2021-05-06,105187,2021-12-06 18:36:15 UTC,P,,,2018-10-01,,,,,J1772,US,,,,Public,,public,,,PAY_GARAGE,,,,,,,$0.10 per kWh,,,,,,,,,,
ELEC,AAA Albany - Tesla Destination,618 Delaware Ave,,Albany,NY,12209,,518-426-1000  877-798-3752,E,,Public,24 hours daily; for customer use only; see front desk for access,,,,,,4,,,Tesla Destination,https://www.tesla.com/destination-charging,200-9,42.636441,-73.791489,2020-11-03,114878,2021-03-11 23:22:17 UTC,P,,,2018-11-01,,,,,J1772 TESLA,US,,,,Public,,public,,,OFFICE_BLDG,,,,,,,Free,,,,,,,,,,
ELEC,Troutbeck - Tesla Destination,515 Leedsville Rd,,Amenia,NY,12501,,845-789-1555  877-798-3752,E,,Public,24 hours daily; for customer use only; see front desk for access,,,,,,2,,,Tesla Destination,https://www.tesla.com/destination-charging,200-9,41.855019,-73.515167,2020-11-03,114879,2021-03-11 23:22:17 UTC,P,,,2018-11-01,,,,,TESLA,US,,,,Public,,public,,,HOTEL,,,,,,,Free,,,,,,,,,,
ELEC,Paumanok Vineyards - Tesla Destination,1074 Main Rd,,Aquebogue,NY,11931,,631-722-8800  877-798-3752,E,,Public - Call ahead,24 hours daily; for customer use only,,,,,,1,,,Tesla Destination,https://www.tesla.com/destination-charging,GPS,40.94872520718034,-72.60259362432862,2020-11-03,114880,2021-03-11 23:22:17 UTC,P,,,2017-09-01,,,,,TESLA,US,,,,Public - Appeler à l'avance,,public,CALL,,BREWERY_DISTILLERY_WINERY,,,,,,,Free,,,,,,,,,,
ELEC,Astoria Central Parking - Tesla Destination,31-57 31st St,,Astoria,NY,11106,,718-489-1654  877-798-3752,E,,Public,24 hours daily; pay lot; see valet for access,,,,,,4,,,Tesla Destination,https://www.tesla.com/destination-charging,200-8,40.762763,-73.924473,2020-11-03,114881,2021-03-11 23:22:17 UTC,P,,,2018-11-01,,,,,TESLA,US,,,,Public,,public,,,PAY_GARAGE,,,,,,,Free,,,,,,,,,,
ELEC,Peppermint's Restaurant - Tesla Destination,244 E Main St,,Avon,NY,14414,,585-226-2707  877-798-3752,E,,Public,24 hours daily; for customer use only,,,,,,3,,,Tesla Destination,https://www.tesla.com/destination-charging,200-9,42.910883,-77.735952,2020-11-03,114882,2021-03-11 23:22:17 UTC,P,,,2017-09-01,,,,,TESLA,US,,,,Public,,public,,,RESTAURANT,,,,,,,Free,,,,,,,,,,
ELEC,DoubleTree by Hilton Binghamton - Tesla Destination,225 Water St,,Binghamton,NY,13901,,607-722-7575  877-798-3752,E,,Public,24 hours daily; for customer use only; see front desk for access,,,,,,1,,,Tesla Destination,https://www.tesla.com/destination-charging,200-9,42.101763,-75.914203,2020-11-03,114883,2021-03-11 23:22:17 UTC,P,,,2016-01-01,,,,,TESLA,US,,,,Public,,public,,,HOTEL,,,,,,,Free,,,,,,,,,,
ELEC,Scotttech - Tesla Destination,336 Court St,,Binghamton,NY,13904,,315-214-6065  877-798-3752,E,,Public,24 hours daily,,,,,,1,,,Tesla Destination,https://www.tesla.com/destination-charging,200-9,42.103472,-75.892293,2020-11-03,114884,2021-03-11 23:22:17 UTC,P,,,2015-06-09,,,,,TESLA,US,,,,Public,,public,,,OFFICE_BLDG,,,,,,,Free,,,,,,,,,,
ELEC,Fairfield Inn by Marriott Binghamton - Tesla Destination,864 Upper Front St,,Binghamton,NY,13905,,607-651-1000  877-798-3752,E,,Public,24 hours daily; for customer use only; see front desk for access,,,,,,3,,,Tesla Destination,https://www.tesla.com/destination-charging,200-8,42.130103,-75.905801,2020-11-03,114885,2021-03-11 23:22:17 UTC,P,,,2018-11-01,,,,,J1772 TESLA,US,,,,Public,,public,,,HOTEL,,,,,,,Free,,,,,,,,,,
ELEC,Hunt County Vineyards - Tesla Destination,4021 Italy Hill Rd,,Branchport,NY,14418,,315-595-2812  877-798-3752,E,,Public,24 hours daily; for customer use only,,,,,,5,,,Tesla Destination,https://www.tesla.com/destination-charging,200-9,42.591377,-77.172899,2020-11-03,114886,2021-03-11 23:22:17 UTC,P,,,2018-11-01,,,,,J1772 TESLA,US,,,,Public,,public,,,BREWERY_DISTILLERY_WINERY,,,,,,,Free,,,,,,,,,,
ELEC,Point Place Casino - Tesla Destination,450-452 NY-31,,Bridgeport,NY,13030,,315-366-9610  877-798-3752,E,,Public,24 hours daily; for customer use only,,,,,,2,,,Tesla Destination,https://www.tesla.com/destination-charging,200-9,43.154875,-75.965306,2020-11-03,114887,2021-03-11 23:22:17 UTC,P,,,2018-11-01,,,,,TESLA,US,,,,Public,,public,,,OTHER_ENTERTAINMENT,,,,,,,Free,,,,,,,,,,
ELEC,Century Parking Corp - Tesla Destination,2600 Netherland Ave,,Bronx,NY,10463,,718-543-6002  877-798-3752,E,,Public,24 hours daily; pay lot; see valet for access,,,,,,4,,,Tesla Destination,https://www.tesla.com/destination-charging,200-9,40.878611,-73.914792,2020-11-03,114888,2021-03-11 23:22:17 UTC,P,,,2018-11-01,,,,,TESLA,US,,,,Public,,public,,,PAY_GARAGE,,,,,,,Free,,,,,,,,,,
ELEC,Standard Parking 1360 Fulton Street - Tesla Destination,1360  Fulton St,,Brooklyn,NY,11216,,800-836-6666  877-798-3752,E,,Public,24 hours daily; see valet for access,,,,,,2,,,Tesla Destination,https://www.tesla.com/destination-charging,200-9,40.679983,-73.946504,2020-11-03,114889,2021-03-11 23:22:17 UTC,P,,,2018-11-01,,,,,TESLA,US,,,,Public,,public,,,PAY_GARAGE,,,,,,,Free,,,,,,,,,,
ELEC,Standard Parking 15 Metrotech - Tesla Destination,15 Metrotech Ctr S,,Brooklyn,NY,11201,,800-836-6666  877-798-3752,E,,Public,24 hours daily; see valet for access,,,,,,3,,,Tesla Destination,https://www.tesla.com/destination-charging,200-8,40.693317,-73.9871,2020-11-03,114890,2021-03-11 23:22:17 UTC,P,,,2018-11-01,,,,,J1772 TESLA,US,,,,Public,,public,,,PAY_GARAGE,,,,,,,Free,,,,,,,,,,
ELEC,Quik Park Armory Parking Inc. - Tesla Destination,172 Vanderbilt,,Brooklyn,NY,11205,,718-222-9427  877-798-3752,E,,Public,24 hours daily; see valet for access,,,,,,2,,,Tesla Destination,https://www.tesla.com/destination-charging,200-8,40.692372,-73.969893,2020-11-03,114891,2021-03-11 23:22:17 UTC,P,,,2017-03-01,,,,,TESLA,US,,,,Public,,public,,,PAY_GARAGE,,,,,,,Free,,,,,,,,,,
ELEC,Discount Parking 180 Ashland Place - Tesla Destination,180 Ashland Pl,,Brooklyn,NY,11217,,718-643-0430  877-798-3752,E,,Public,24 hours daily; see valet for access,,,,,,2,,,Tesla Destination,https://www.tesla.com/destination-charging,200-8,40.689411,-73.978741,2020-11-03,114892,2021-03-11 23:22:17 UTC,P,,,2016-05-01,,,,,TESLA,US,,,,Public,,public,,,PAY_GARAGE,,,,,,,Free,,,,,,,,,,
ELEC,iPark 22/34 N 6th Garage Corp - Tesla Destination,22 N 5th St,,Brooklyn,NY,11211,,718-218-7570  877-798-3752,E,,Public,24 hours daily; see valet for access,,,,,,4,,,Tesla Destination,https://www.tesla.com/destination-charging,200-8,40.718794,-73.962594,2020-11-03,114893,2021-03-11 23:22:17 UTC,P,,,2017-03-01,,,,,J1772 TESLA,US,,,,Public,,public,,,PAY_GARAGE,,,,,,,Free,,,,,,,,,,
ELEC,iPark 247 N 7th Street - Tesla Destination,249 N 7th St,,Brooklyn,NY,11248,,929-337-8633  877-798-3752,E,,Public,24 hours daily; see valet for access,,,,,,3,,,Tesla Destination,https://www.tesla.com/destination-charging,200-9,40.716085,-73.954508,2020-11-03,114894,2021-03-11 23:22:17 UTC,P,,,2017-03-01,,,,,J1772 TESLA,US,,,,Public,,public,,,PAY_GARAGE,,,,,,,Free,,,,,,,,,,
ELEC,Parkright 257 Gold Street - Tesla Destination,257  Gold St,,Brooklyn,NY,11201,,212-247-7303  877-798-3752,E,,Public,24 hours daily; see valet for access,,,,,,3,,,Tesla Destination,https://www.tesla.com/destination-charging,200-9,40.696871,-73.983002,2020-11-03,114895,2021-03-11 23:22:17 UTC,P,,,2016-01-01,,,,,J1772 TESLA,US,,,,Public,,public,,,HOTEL,,,,,,,Free,,,,,,,,,,
ELEC,Standard Parking Pierepoint Plaza - Tesla Destination,300 Cadman,,Brooklyn,NY,11201,,800-836-6666  877-798-3752,E,,Public,24 hours daily; see valet for access,,,,,,3,,,Tesla Destination,https://www.tesla.com/destination-charging,GPS,40.695115,-73.990993,2020-11-03,114896,2021-03-11 23:22:17 UTC,P,,,2018-11-01,,,,,J1772 TESLA,US,,,,Public,,public,,,PAY_GARAGE,,,,,,,Free,,,,,,,,,,
ELEC,Enterprise 309 Gold Street - Tesla Destination,309 Gold St,,Brooklyn,NY,11201,,212-564-3199  877-798-3752,E,,Public,24 hours daily; for customer use only; see valet for access,,,,,,3,,,Tesla Destination,https://www.tesla.com/destination-charging,200-9,40.695013,-73.982843,2020-11-03,114897,2021-03-11 23:22:17 UTC,P,,,2017-03-01,,,,,J1772 TESLA,US,,,,Public,,public,,,HOTEL,,,,,,,Free,,,,,,,,,,
ELEC,iPark NYC 2234 North 6th - Tesla Destination,34 North 6th St,,Brooklyn,NY,11249,,855-472-7569  877-798-3752,E,,Public,24 hours daily; see valet for access,,,,,,3,,,Tesla Destination,https://www.tesla.com/destination-charging,200-9,40.719756,-73.962933,2020-11-03,114898,2021-03-11 23:22:17 UTC,P,,,2016-01-01,,,,,J1772 TESLA,US,,,,Public,,public,,,PAY_GARAGE,,,,,,,Free,,,,,,,,,,
ELEC,Standard Parking 1 Metrotech - Tesla Destination,351 Jay St,,Brooklyn,NY,11201,,212-321-7500  877-798-3752,E,,Public,24 hours daily; see valet for access,,,,,,3,,,Tesla Destination,https://www.tesla.com/destination-charging,200-9,40.693216,-73.986716,2020-11-03,114900,2021-03-11 23:22:17 UTC,P,,,2018-11-01,,,,,J1772 TESLA,US,,,,Public,,public,,,PAY_GARAGE,,,,,,,Free,,,,,,,,,,
ELEC,GGMC Belltel Car Park - Tesla Destination,356  Bridge St,,Brooklyn,NY,11201,,718-643-1385  877-798-3752,E,,Public,24 hours daily; for customer use only; see valet for access,,,,,,3,,,Tesla Destination,https://www.tesla.com/destination-charging,200-8,40.692645,-73.985451,2020-11-03,114901,2021-03-11 23:22:17 UTC,P,,,2017-09-01,,,,,J1772 TESLA,US,,,,Public,,public,,,PAY_GARAGE,,,,,,,Free,,,,,,,,,,
ELEC,Quik Park 365 Management LLC - Tesla Destination,365 Bond St,,Brooklyn,NY,11231,,888-705-7845  877-798-3752,E,,Public,24 hours daily; see valet for access,,,,,,3,,,Tesla Destination,https://www.tesla.com/destination-charging,200-9,40.677433,-73.990299,2020-11-03,114902,2021-03-11 23:22:17 UTC,P,,,2017-03-01,,,,,J1772 TESLA,US,,,,Public,,public,,,PAY_GARAGE,,,,,,,Free,,,,,,,,,,
ELEC,GMC 388 Bridge Street - Tesla Destination,388 Bridge St,,Brooklyn,NY,11201,,718-855-1061  877-798-3752,E,,Public,24 hours daily; pay lot; see valet for access,,,,,,3,,,Tesla Destination,https://www.tesla.com/destination-charging,200-9,40.691652,-73.985733,2020-11-03,114903,2021-03-11 23:22:17 UTC,P,,,2018-11-01,,,,,TESLA,US,,,,Public,,public,,,PAY_GARAGE,,,,,,,Free,,,,,,,,,,
ELEC,Quik Park Brooklyn Bridge LLC - Tesla Destination,4 Joralemon St,,Brooklyn,NY,11201,,718-488-0099  877-798-3752,E,,Public,24 hours daily; see valet for access,,,,,,3,,,Tesla Destination,https://www.tesla.com/destination-charging,200-8,40.693949,-74.00025,2020-11-03,114904,2021-03-11 23:22:17 UTC,P,,,2016-01-01,,,,,J1772 TESLA,US,,,,Public,,public,,,PAY_GARAGE,,,,,,,Free,,,,,,,,,,
ELEC,Rapidpark 44 State Street - Tesla Destination,44 State St,,Brooklyn,NY,11201,,718-624-5955  877-798-3752,E,,Public,24 hours daily; see valet for access,,,,,,3,,,Tesla Destination,https://www.tesla.com/destination-charging,200-8,40.691871,-73.998307,2020-11-03,114905,2021-03-11 23:22:17 UTC,P,,,2017-09-01,,,,,J1772 TESLA,US,,,,Public,,public,,,PAY_GARAGE,,,,,,,Free,,,,,,,,,,
ELEC,Park Kwik LLC 50 Washington St. - Tesla Destination,45 Main St,,Brooklyn,NY,11201,,718-222-0500  877-798-3752,E,,Public,24 hours daily; for customer use only; see valet for access,,,,,,3,,,Tesla Destination,https://www.tesla.com/destination-charging,200-9,40.702769,-73.990584,2020-11-03,114906,2021-03-11 23:22:17 UTC,P,,,2017-09-01,,,,,J1772 TESLA,US,,,,Public,,public,,,PAY_GARAGE,,,,,,,Free,,,,,,,,,,
ELEC,Kings County Parking - Tesla Destination,581 Clarkson Ave,,Brooklyn,NY,11203,,718-245-5337  877-798-3752,E,,Public,24 hours daily; see front desk for access,,,,,,2,,,Tesla Destination,https://www.tesla.com/destination-charging,200-9,40.656148,-73.940355,2020-11-03,114907,2021-03-11 23:22:17 UTC,P,,,2017-09-01,,,,,TESLA,US,,,,Public,,public,,,PAY_GARAGE,,,,,,,Free,,,,,,,,,,
ELEC,1 Hotel Brooklyn Bridge - Tesla Destination,60 Furman St,,Brooklyn,NY,11201,,877-803-1111  877-798-3752,E,,Public,24 hours daily; see valet for access,,,,,,7,,,Tesla Destination,https://www.tesla.com/destination-charging,200-9,40.702241,-73.995539,2020-11-03,114908,2021-03-11 23:22:17 UTC,P,,,2017-09-01,,,,,J1772 TESLA,US,,,,Public,,public,,,HOTEL,,,,,,,Free,,,,,,,,,,
ELEC,City Parking Linc Garage - Tesla Destination,62 Northside Piers,,Brooklyn,NY,11249,,718-963-7048  877-798-3752,E,,Public,24 hours daily; see valet for access,,,,,,3,,,Tesla Destination,https://www.tesla.com/destination-charging,200-8,40.71955,-73.96413,2020-11-03,114909,2021-03-11 23:22:17 UTC,P,,,2017-09-01,,,,,J1772 TESLA,US,,,,Public,,public,,,PAY_GARAGE,,,,,,,Free,,,,,,,,,,
ELEC,"Littleman Driggs Parking, LLC - Tesla Destination",626  Driggs Ave,,Brooklyn,NY,11211,,212-714-3571  877-798-3752,E,,Public,24 hours daily; see valet for access,,,,,,3,,,Tesla Destination,https://www.tesla.com/destination-charging,200-9,40.715405,-73.958638,2020-11-03,114910,2021-03-11 23:22:17 UTC,P,,,2018-11-01,,,,,J1772 TESLA,US,,,,Public,,public,,,PAY_GARAGE,,,,,,,Free,,,,,,,,,,
ELEC,GGMC Parking 66 Rockwell Pl Garage - Tesla Destination,66 Rockwell Pl,,Brooklyn,NY,11217,,718-797-2408  877-798-3752,E,,Public,24 hours daily; see valet for access,,,,,,3,,,Tesla Destination,https://www.tesla.com/destination-charging,200-8,40.68806,-73.979449,2020-11-03,114911,2021-03-11 23:22:17 UTC,P,,,2016-01-01,,,,,J1772 TESLA,US,,,,Public,,public,,,PAY_GARAGE,,,,,,,Free,,,,,,,,,,
ELEC,Standard Parking 200 Cadman Plaza West - Tesla Destination,75 Henry St,,Brooklyn,NY,11221,,800-836-6666  877-798-3752,E,,Public,24 hours daily; see valet for access,,,,,,3,,,Tesla Destination,https://www.tesla.com/destination-charging,200-9,40.698807,-73.991859,2020-11-03,114912,2021-03-11 23:22:17 UTC,P,,,2018-11-01,,,,,J1772 TESLA,US,,,,Public,,public,,,PAY_GARAGE,,,,,,,Free,,,,,,,,,,
ELEC,GGMC Parking 75 Smith St Garage - Tesla Destination,75 Smith St,,Brooklyn,NY,11201,,718-643-0593  877-798-3752,E,,Public,24 hours daily; see valet for access,,,,,,3,,,Tesla Destination,https://www.tesla.com/destination-charging,200-9,40.688799,-73.988642,2020-11-03,114913,2021-03-11 23:22:17 UTC,P,,,2016-01-01,,,,,J1772 TESLA,US,,,,Public,,public,,,PAY_GARAGE,,,,,,,Free,,,,,,,,,,
ELEC,Standard Parking 2 Metrotech - Tesla Destination,8 Metrotech Ctr S,,Brooklyn,NY,11201,,800-836-6666  877-798-3752,E,,Public,24 hours daily; see valet for access,,,,,,3,,,Tesla Destination,https://www.tesla.com/destination-charging,200-8,40.692919,-73.987193,2020-11-03,114914,2021-03-11 23:22:17 UTC,P,,,2018-11-01,,,,,J1772 TESLA,US,,,,Public,,public,,,PAY_GARAGE,,,,,,,Free,,,,,,,,,,
ELEC,Quik Park 81 Fleet Place LLC - Tesla Destination,81 Fleet Pl,,Brooklyn,NY,11201,,212-832-2066  877-798-3752,E,,Public,24 hours daily; see valet for access,,,,,,3,,,Tesla Destination,https://www.tesla.com/destination-charging,200-9,40.693208,-73.981326,2020-11-03,114915,2021-03-11 23:22:17 UTC,P,,,2016-01-01,,,,,J1772 TESLA,US,,,,Public,,public,,,PAY_GARAGE,,,,,,,Free,,,,,,,,,,
ELEC,Rapidpark 906 Union Street - Tesla Destination,906 Union St,,Brooklyn,NY,11215,,718-622-4867  877-798-3752,E,,Public,24 hours daily; see valet for access,,,,,,3,,,Tesla Destination,https://www.tesla.com/destination-charging,200-9,40.672726,-73.971664,2020-11-03,114916,2021-03-11 23:22:17 UTC,P,,,2017-09-01,,,,,J1772 TESLA,US,,,,Public,,public,,,PAY_GARAGE,,,,,,,Free,,,,,,,,,,
ELEC,MPG 100 Jay Street - Tesla Destination,100 Jay St,,Brooklyn,NY,10021,,718-855-2851  877-798-3752,E,,Public,24 hours daily; for customer use only; see valet for access,,,,,,3,,,Tesla Destination,https://www.tesla.com/destination-charging,200-9,40.702004,-73.987053,2020-11-03,114917,2021-03-11 23:22:17 UTC,P,,,2017-09-01,,,,,J1772 TESLA,US,,,,Public,,public,,,PAY_GARAGE,,,,,,,Free,,,,,,,,,,
ELEC,imPark 101 Bedford Ave - Tesla Destination,101  Bedford Ave,,Brooklyn,NY,11211,,718-387-1737  877-798-3752,E,,Public,24 hours daily; pay lot; see valet for access,,,,,,3,,,Tesla Destination,https://www.tesla.com/destination-charging,200-9,40.720014,-73.95455,2020-11-03,114918,2021-03-11 23:22:17 UTC,P,,,2018-11-01,,,,,J1772 TESLA,US,,,,Public,,public,,,PAY_GARAGE,,,,,,,Free,,,,,,,,,,
ELEC,The William Vale Hotel - Tesla Destination,111 N 12th St,,Brooklyn,NY,11249,,718-631-8400  877-798-3752,E,,Public,24 hours daily; for customer use only; see valet for access,,,,,,4,,,Tesla Destination,https://www.tesla.com/destination-charging,200-8,40.722362,-73.957208,2020-11-03,114919,2021-03-11 23:22:17 UTC,P,,,2016-10-01,,,,,TESLA,US,,,,Public,,public,,,HOTEL,,,,,,,Free,,,,,,,,,,
ELEC,Holiday Inn Express Canandaigua - Finger Lakes - Tesla Destination,330 Eastern Blvd,,Canandaigua,NY,14424,,585-396-3669  877-798-3752,E,,Public,24 hours daily; for customer use only; see front desk for access,,,,,,3,,,Tesla Destination,https://www.tesla.com/destination-charging,200-8,42.878166,-77.255793,2020-11-03,114920,2021-03-11 23:22:17 UTC,P,,,2018-11-01,,,,,J1772 TESLA,US,,,,Public,,public,,,HOTEL,,,,,,,Free,,,,,,,,,,
ELEC,Best Western University Inn - Tesla Destination,90 E Main St,,Canton,NY,13617,,315-386-8522  877-798-3752,E,,Public,24 hours daily; for customer use only; see front desk for access,,,,,,3,,,Tesla Destination,https://www.tesla.com/destination-charging,200-9,44.596265,-75.149319,2020-11-03,114921,2021-03-11 23:22:17 UTC,P,,,2016-01-01,,,,,J1772 TESLA,US,,,,Public,,public,,,HOTEL,,,,,,,Free,,,,,,,,,,
ELEC,Glenmere Mansion - Tesla Destination,634 Pine Hill Rd,,Chester,NY,10918,,845-469-1900  877-798-3752,E,,Public - Call ahead,24 hours daily; for customer use only,,,,,,3,,,Tesla Destination,https://www.tesla.com/destination-charging,200-9,41.338768,-74.322712,2020-11-03,114922,2021-03-11 23:22:17 UTC,P,,,2016-01-01,,,,,J1772 TESLA,US,,,,Public - Appeler à l'avance,,public,CALL,,HOTEL,,,,,,,Free,,,,,,,,,,
ELEC,The Fern Lodge - Tesla Destination,46 Fiddlehead Bay Rd,,Chestertown,NY,12817,,518-494-7238  877-798-3752,E,,Public,24 hours daily; for customer use only,,,,,,2,,,Tesla Destination,https://www.tesla.com/destination-charging,200-9,43.625316,-73.850472,2020-11-03,114923,2021-03-11 23:22:17 UTC,P,,,2018-11-01,,,,,TESLA,US,,,,Public,,public,,,HOTEL,,,,,,,Free,,,,,,,,,,
ELEC,Asa Ransom House - Tesla Destination,10529 Main St,,Clarence,NY,14031,,716-759-2315  877-798-3752,E,,Public,24 hours daily; for customer use only; see front desk for access,,,,,,1,,,Tesla Destination,https://www.tesla.com/destination-charging,200-9,42.980201,-78.595784,2020-11-03,114924,2021-03-11 23:22:17 UTC,P,,,2016-01-01,,,,,TESLA,US,,,,Public,,public,,,HOTEL,,,,,,,Free,,,,,,,,,,
ELEC,"The Inn at Cooperstown, a Select Registry Property - Tesla Destination",16 Chestnut St,,Cooperstown,NY,13326,,607-547-5756  877-798-3752,E,,Public,24 hours daily; see front desk for access,,,,,,2,,,Tesla Destination,https://www.tesla.com/destination-charging,200-9,42.70163,-74.926982,2020-11-03,114925,2021-03-11 23:22:17 UTC,P,,,2016-01-01,,,,,J1772 TESLA,US,,,,Public,,public,,,INN,,,,,,,Free,,,,,,,,,,
ELEC,Fairfield Inn by Marriott Corning Riverside - Tesla Destination,3 S Buffalo St,,Corning,NY,14830,,607-937-9600  877-798-3752,E,,Public,24 hours daily; for customer use only; see front desk for access,,,,,,3,,,Tesla Destination,https://www.tesla.com/destination-charging,200-9,42.153255,-77.080389,2020-11-03,114926,2021-03-11 23:22:17 UTC,P,,,2018-11-01,,,,,J1772 TESLA,US,,,,Public,,public,,,HOTEL,,,,,,,Free,,,,,,,,,,
ELEC,Comfort Inn - Tesla Destination,66 W Pulteney St,,Corning,NY,14830,,607-962-1515  877-798-3752,E,,Public,24 hours daily; for customer use only; see front desk for access,,,,,,3,,,Tesla Destination,https://www.tesla.com/destination-charging,200-9,42.150849,-77.064055,2019-09-30,114927,2021-03-11 23:22:17 UTC,P,,,2018-11-01,,,,,J1772 TESLA,US,,,,Public,,public,,,HOTEL,,,,,,,Free,,,,,,,,,,
ELEC,Storm King Tavern and Golf Club - Tesla Destination,18 Ridge Rd,,Cornwall,NY,12518,,845-534-3899  877-798-3752,E,,Public,24 hours daily,,,,,,2,,,Tesla Destination,https://www.tesla.com/destination-charging,200-9,41.429428,-74.028204,2020-11-03,114928,2021-03-11 23:22:17 UTC,P,,,2017-09-01,,,,,TESLA,US,,,,Public,,public,,,HOTEL,,,,,,,Free,,,,,,,,,,
ELEC,Hampton Inn Cortland - Tesla Destination,26 River St,,Cortland,NY,13045,,607-662-0007  877-798-3752,E,,Public,24 hours daily; for customer use only; see front desk for access,,,,,,2,,,Tesla Destination,https://www.tesla.com/destination-charging,200-8,42.606836,-76.164117,2020-11-03,114929,2021-03-11 23:22:17 UTC,P,,,2016-08-15,,,,,J1772 TESLA,US,,,,Public,,public,,,HOTEL,,,,,,,Free,,,,,,,,,,
ELEC,"Country Inn & Suites By Carlson, Cortland, NY - Tesla Destination",3707 State Rte 281,,Cortland,NY,13045,,607-753-8300  877-798-3752,E,,Public,24 hours daily; for customer use only; see front desk for access,,,,,,3,,,Tesla Destination,https://www.tesla.com/destination-charging,GPS,42.586516365562076,-76.21167520104979,2020-11-03,114930,2021-03-11 23:22:17 UTC,P,,,2018-11-01,,,,,J1772 TESLA,US,,,,Public,,public,,,HOTEL,,,,,,,Free,,,,,,,,,,
ELEC,The Farmhouse Bed and Breakfast - Tesla Destination,1855 Depot Ln,,Cutchogue,NY,11935,,631-734-8539  877-798-3752,E,,Public - Call ahead,24 hours daily; for customer use only,,,,,,2,,,Tesla Destination,https://www.tesla.com/destination-charging,200-9,41.015587,-72.489904,2020-11-03,114931,2021-03-11 23:22:17 UTC,P,,,2016-09-01,,,,,J1772 TESLA,US,,,,Public - Appeler à l'avance,,public,CALL,,B_AND_B,,,,,,,Free,,,,,,,,,,
ELEC,River Spring Lodge - Tesla Destination,1961 Church Rd,,Darien Center,NY,14040,,585-708-4212  877-798-3752,E,,Public - Call ahead,24 hours daily; for customer use only,,,,,,1,,,Tesla Destination,https://www.tesla.com/destination-charging,200-9,42.86245,-78.34496,2020-11-03,114932,2021-03-11 23:22:17 UTC,P,,,2017-03-01,,,,,TESLA,US,,,,Public - Appeler à l'avance,,public,CALL,,HOTEL,,,,,,,Free,,,,,,,,,,
ELEC,Culinary Arts Center at Auburn Watson - Tesla Destination,3295 Walden Ave,,Depew,NY,14043,,716-876-8000  877-798-3752,E,,Public,24 hours daily,,,,,,2,,,Tesla Destination,https://www.tesla.com/destination-charging,200-9,42.911728,-78.694835,2020-11-03,114933,2021-03-11 23:22:17 UTC,P,,,2016-11-01,,,,,J1772 TESLA,US,,,,Public,,public,,,SHOPPING_CENTER,,,,,,,Free,,,,,,,,,,
ELEC,The FLX Wienery - Tesla Destination,5090 Highway 14,,Dundee,NY,14837,,607-243-7100  877-798-3752,E,,Public - Call ahead,24 hours daily; for customer use only,,,,,,2,,,Tesla Destination,https://www.tesla.com/destination-charging,200-9,42.519115,-76.922429,2020-11-03,114935,2021-03-11 23:22:17 UTC,P,,,2016-01-01,,,,,J1772 TESLA,US,,,,Public - Appeler à l'avance,,public,CALL,,BREWERY_DISTILLERY_WINERY,,,,,,,Free,,,,,,,,,,
ELEC,Hampton Inn East Aurora - Tesla Destination,49 Olean St,,East Aurora,NY,14052,,716-655-3300  877-798-3752,E,,Public,24 hours daily; for customer use only; see front desk for access,,,,,,3,,,Tesla Destination,https://www.tesla.com/destination-charging,200-8,42.766365,-78.608141,2020-11-03,114936,2021-03-11 23:22:17 UTC,P,,,2018-11-01,,,,,J1772 TESLA,US,,,,Public,,public,,,HOTEL,,,,,,,Free,,,,,,,,,,
ELEC,Hampton Inn LaGuardia Airport - Tesla Destination,102-40 Ditmars Blvd,,East Elmhurst,NY,11369,,718-672-6600  877-798-3752,E,,Public,24 hours daily; for customer use only; see front desk for access,,,,,,2,,,Tesla Destination,https://www.tesla.com/destination-charging,200-9,40.767871,-73.867659,2020-11-03,114937,2021-03-11 23:22:17 UTC,P,,,2017-03-01,,,,,J1772 TESLA,US,,,,Public,,public,,,HOTEL,,,,,,,Free,,,,,,,,,,
ELEC,Luce Ristorante - Tesla Destination,1053 Oyster Bay Rd,,East Norwich,NY,11732,,516-624-8330  877-798-3752,E,,Public,24 hours daily; for customer use only; see front desk for access,,,,,,3,,,Tesla Destination,https://www.tesla.com/destination-charging,200-9,40.843546,-73.532489,2020-11-03,114938,2021-03-11 23:22:17 UTC,P,,,2016-08-15,,,,,J1772 TESLA,US,,,,Public,,public,,,RESTAURANT,,,,,,,Free,,,,,,,,,,
ELEC,MPG The Shops at Skyview - Tesla Destination,40-24 College Point Blvd,,Flushing,NY,11354,,212-490-3460  877-798-3752,E,,Public,24 hours daily; pay lot,,,,,,3,,,Tesla Destination,https://www.tesla.com/destination-charging,200-9,40.756893,-73.834158,2020-11-03,114939,2021-03-11 23:22:17 UTC,P,,,2018-11-01,,,,,TESLA,US,,,,Public,,public,,,PAY_GARAGE,,,,,,,Free,,,,,,,,,,
ELEC,Sylvan Pinnacle Garage - Tesla Destination,112-01 Queens Blvd,,Forest Hills,NY,11375,,718-520-1403  877-798-3752,E,,Public,24 hours daily; pay lot; see valet for access,,,,,,4,,,Tesla Destination,https://www.tesla.com/destination-charging,200-9,40.726421,-73.851406,2020-11-03,114940,2021-03-11 23:22:17 UTC,P,,,2018-11-01,,,,,TESLA,US,,,,Public,,public,,,PAY_GARAGE,,,,,,,Free,,,,,,,,,,
ELEC,"Inn at Lake Joseph, a Select Registry Property - Tesla Destination",162 Saint Josephs Rd,,Forestburgh,NY,12777,,845-791-9506  877-798-3752,E,,Public - Call ahead,24 hours daily,,,,,,1,,,Tesla Destination,https://www.tesla.com/destination-charging,200-9,41.589244,-74.713261,2020-11-03,114941,2021-03-11 23:22:17 UTC,P,,,2016-05-01,,,,,TESLA,US,,,,Public - Appeler à l'avance,,public,CALL,,INN,,,,,,,Free,,,,,,,,,,
ELEC,Hampton Inn Garden City - Tesla Destination,1 North Ave,,Garden City,NY,11530,,516-227-2720  877-798-3752,E,,Public,24 hours daily; for customer use only; see front desk for access,,,,,,3,,,Tesla Destination,https://www.tesla.com/destination-charging,200-9,40.741668,-73.609459,2020-11-03,114943,2021-03-11 23:22:17 UTC,P,,,2016-08-15,,,,,J1772 TESLA,US,,,,Public,,public,,,HOTEL,,,,,,,Free,,,,,,,,,,
ELEC,Tuthilltown Spirits - Tesla Destination,14 Gristmill Ln,,Gardiner,NY,12525,,845-633-8734  877-798-3752,E,,Public,24 hours daily,,,,,,3,,,Tesla Destination,https://www.tesla.com/destination-charging,200-9,41.687197,-74.175388,2020-11-03,114944,2021-03-11 23:22:17 UTC,P,,,2016-02-01,,,,,J1772 TESLA,US,,,,Public,,public,,,BREWERY_DISTILLERY_WINERY,,,,,,,Free,,,,,,,,,,
ELEC,The Garrison and Highlands Country Club - Tesla Destination,1 Snakehill Rd,,Garrison,NY,10524,,845-424-3604  877-798-3752,E,,Public,24 hours daily,,,,,,2,,,Tesla Destination,https://www.tesla.com/destination-charging,200-8,41.381167,-73.912428,2020-11-03,114945,2021-03-11 23:22:17 UTC,P,,,2016-08-15,,,,,TESLA,US,,,,Public,,public,,,REC_SPORTS_FACILITY,,,,,,,Free,,,,,,,,,,
ELEC,Hawthorne Valley - Tesla Destination,330 Country Rte 21C,,Ghent,NY,12075,,518-672-4465  877-798-3752,E,,Public,24 hours daily,,,,,,6,,,Tesla Destination,https://www.tesla.com/destination-charging,200-8,42.270437,-73.593885,2020-11-03,114946,2021-03-11 23:22:17 UTC,P,,,2018-07-26,,,,,J1772 TESLA,US,,,,Public,,public,,,SHOPPING_CENTER,,,,,,,Free,,,,,,,,,,
ELEC,Greenporter Hotel - Tesla Destination,326 Front St,,Greenport,NY,11944,,631-477-0066  877-798-3752,E,,Public,24 hours daily; for customer use only; see front desk for access,,,,,,1,,,Tesla Destination,https://www.tesla.com/destination-charging,200-9,41.101654,-72.364242,2020-11-03,114947,2021-03-11 23:22:17 UTC,P,,,2016-09-01,,,,,TESLA,US,,,,Public,,public,,,HOTEL,,,,,,,Free,,,,,,,,,,
ELEC,Peppermints Restaurant - Tesla Destination,4870 W Henrietta Rd,,Henrietta,NY,14467,,585-359-9169  877-798-3752,E,,Public,24 hours daily; for customer use only,,,,,,3,,,Tesla Destination,https://www.tesla.com/destination-charging,200-9,43.055362,-77.65315,2020-11-03,114948,2021-03-11 23:22:17 UTC,P,,,2018-11-01,,,,,TESLA,US,,,,Public,,public,,,RESTAURANT,,,,,,,Free,,,,,,,,,,
ELEC,Hudson Valley Rail Trail Depot - Tesla Destination,101 New Paltz Rd,,Highland,NY,12528,,845-691-2144  877-798-3752,E,,Public,24 hours daily,,,,,,4,,,Tesla Destination,https://www.tesla.com/destination-charging,200-9,41.733972,-73.974846,2020-11-03,114949,2021-03-11 23:22:17 UTC,P,,,2018-11-01,,,,,J1772 TESLA,US,,,,Public,,public,,,OTHER_ENTERTAINMENT,,,,,,,Free,,,,,,,,,,
ELEC,Town of Lloyd Municipal Parking Lot - Tesla Destination,39 Main St,,Highland,NY,12528,,845-691-2144  877-798-3752,E,,Public,24 hours daily,,,,,,4,,,Tesla Destination,https://www.tesla.com/destination-charging,200-8,41.720133,-73.964807,2020-11-03,114950,2021-03-11 23:22:17 UTC,P,,,2018-11-01,,,,,J1772 TESLA,US,,,,Public,,public,,,MUNI_GOV,,,,,,,Free,,,,,,,,,,
ELEC,Grape Hollow Farm - Tesla Destination,62 Paine Rd,,Holmes,NY,12531,,917-992-6289  877-798-3752,E,,Public,24 hours daily; for customer use only,,,,,,2,,,Tesla Destination,https://www.tesla.com/destination-charging,200-9,41.548637,-73.692718,2020-11-03,114951,2021-03-11 23:22:17 UTC,P,,,2018-11-01,,,,,TESLA,US,,,,Public,,public,,,HOTEL,,,,,,,Free,,,,,,,,,,
ELEC,Best Western Maple City Inn - Tesla Destination,1 Canisteo Square,,Hornell,NY,14843,,607-324-4300  877-798-3752,E,,Public,24 hours daily; for customer use only; see front desk for access,,,,,,3,,,Tesla Destination,https://www.tesla.com/destination-charging,200-9,42.32285,-77.662418,2020-11-03,114952,2021-03-11 23:22:17 UTC,P,,,2018-11-01,,,,,J1772 TESLA,US,,,,Public,,public,,,HOTEL,,,,,,,Free,,,,,,,,,,
ELEC,Fairfield Inn & Suites by Marriott Elmira Corning - Tesla Destination,1600 County Rd 64,,Horseheads,NY,14845,,607-739-9200  877-798-3752,E,,Public,24 hours daily; for customer use only; see front desk for access,,,,,,3,,,Tesla Destination,https://www.tesla.com/destination-charging,200-9,42.15882,-76.85612,2020-11-03,114953,2021-03-11 23:22:17 UTC,P,,,2018-11-01,,,,,J1772 TESLA,US,,,,Public,,public,,,HOTEL,,,,,,,Free,,,,,,,,,,
